"id","iata_code","icao_code","name","city_id","city_name","time_zone_offset","latitude","longitude","score","enabled","duffel_id","__drizzlerowid__"
"a00dw54754ijgppmfjr8dwzq","URM","SVUM","Uriman Airport","s0efbh1qk0qtquz52ssuhkch","Uriman","-04:00","5.33306","-62.75","0","1",,"8372"
"a00kyz9szbm7ilj72d2xqesh","MNV","ljn9","Mount Valley Airport","dae8uifio0kbg27nozjzpamj","Mount Valley","+09:30","-14.12","133.8","0","0",,"5379"
"a01sfs6iksum8rf5iwhxr84z","EMG","FAEM","Empangeni Airport","qryaouen4vpij10zf7q8glsq","Empangeni","+02:00","-28.72999","31.9","0","1",,"2307"
"a01zy15e6jnl78u1zy41u8ge","KOR","AYRO","Kokoro Airport","ixcwgqec6r6bxlwmcts49w3g","Kakoro","+10:00","-7.83527","146.53281","0","1",,"4042"
"a02n01f70zii6777dhq6o4ok","LIZ","hkm9","Loring International Airport","qi1chwshj7yszekued6szwa9","Limestone","-04:00","46.90862","-67.82583","0","1",,"4567"
"a073tz30vioyyc30kv9yr6qa","SVA","PASA","Savoonga Airport","a5cfjuyj9e6clygpg0kkgajq","Savoonga","-08:00","63.68639","-170.49249","1","1",,"7199"
"a09idz4r7jub97r3n5whgalq","OKU","FYMO","Mokuti Lodge Airport","t4os0vbjclykzzoo2yts98s7","Mokuti Lodge","+02:00","-22.57","17.1","0","1",,"5231"
"a0jc1njfgxlltnzmo7q3xpjn","FXE","KFXE","Fort Lauderdale Executive Airport","lezzi3o5hi837qa8c2w2r1x1","Fort Lauderdale","-04:00","26.19758","-80.17","0","0",,"2511"
"a0jkjvx8eowrucmhpg9j4i2h","CDU","YSCN","Camden Airport","zju1xwcscrozq84f5caybx6n","Camden","+10:00","-34.04027","150.68719","0","0",,"1246"
"a0o7vmn8avhuugcgjmfa86er","WLK","PASK","Selawik Airport","ya3pdz1u2u4xk42dyj16sxzy","Selawik","-08:00","66.6","-160","1","1",,"7245"
"a0okj8hcbu3dp13pdz1k2kfj","BCD","RPVB","Bacolod-Silay International Airport","zvga889z47xiocj6u11aeffy","Bacolod","+08:00","10.77612","123.0192","1","1",,"550"
"a0s3xwb2rm7t7k88j17ux6wz","CRL","EBCI","Brussels South Charleroi Airport","ccoin5jckbjdd1hmcm91svld","Brussels","+02:00","50.45917","4.45389","5","1",,"1131"
"a0uftzmfz5885xer29twxjt5","TDJ","HDTJ","Tadjoura Airport","n8ddap3u2ttpvn93mqo08bjt","Tadjoura","+03:00","11.8","42.9","0","0",,"7812"
"a0z6jw4asl571weq2lihgt4q","HSV","KHSV","Huntsville International Airport","e79beurl5yrhwyaxl7ouea5y","Huntsville","-05:00","34.63723","-86.775","1","1",,"3266"
"a11t6x3clfew6g0wwbb1rjtz","MNC","FQNC","Nacala Airport","xe2elqe9oyh666qqabv1f8cw","Nacala","+02:00","-14.47944","40.71278","0","1",,"5465"
"a1583hxe7z7nvpstvnl3470e","UPL","MRUP","Upala Airport","oc8rhypr2q0xlg2gh3w8brem","Upala","-06:00","10.78001","-85.03","0","1",,"8359"
"a1ez6t4nsl1fq9joee0j2kfy","SVK","beuv","Silver Creek Airport","liwwcx6ok2xh82oau8ih5rzj","Silver Creek","-06:00","16.72528","-88.33999","1","1",,"7413"
"a1juemf1wwrlop4use3pyce7","SFE","RPUS","San Fernando Airport","zk4gga108hi12j5k6hg7iikj","San Fernando","+08:00","16.59389","120.3033","0","1",,"7034"
"a1kal0ky66gdf5oat3c4hkh5","GBV","YGIB","Gibb River Airport","do57t7ewpby65bnm9mx8unos","Gibb River","+08:00","-16.33","126.4","0","0",,"2744"
"a2bxz1bebodqp3apr5iislv1","COD","KCOD","Yellowstone Regional Airport","l6rkvpjua3k7rrnxnx1qybrh","Cody","-06:00","44.52","-109.0244","0","1",,"8901"
"a2f96g0nxo1j7maqtlggd7s6","CUM","SVCU","Antonio José de Sucre Airport","ykbhoqxa94m4iyalfz0u5js4","Cumaná","-04:00","10.45028","-64.13055","0","1",,"349"
"a2ibst0mh5pvnrqayr263ilf","OXY","YMNY","Morney Airport","yg3tvurmftjg4psr2xaueytl","Morney","+10:00","-25.37","141.5","0","1",,"5315"
"a2mz5j2ipsmlhaymu9wmjluu","CCF","LFMK","Carcassonne Airport","tjvffb2ik860g921ctnu66oa","Carcassonne","+02:00","43.21612","2.30639","1","1",,"1332"
"a2ppy85r173a2z4oi7k5eh5z","FFO","KFFO","Wright-Patterson Air Force Base","fm1kyyde810f0ns71w9jz62j","Dayton","-04:00","39.82195","-84.03666","0","1",,"8810"
"a2q5xkuvy8v4n271byw9ffn8","NMR","YNAP","Nappa Merrie Airport","irz0atdl46zzj9rp3uiclwjz","Nappa Merrie","+10:00","-27.63","141.10001","0","0",,"5532"
"a2ud3svtynp7kagdkxp0my2s","NEL","KNEL","Lakehurst Maxfield Field Airport","qnmzuhlu841vrrpa4ulsw6j0","Lakehurst","-04:00","40.03334","-74.35333","0","1",,"4243"
"a35xnau5dfb2gea5nzrktacm","BWP","AYBI","Bewani Airport","up1v9fhqfsphpby83813yqv2","Bewani","+10:00","-3.08305","141.10001","0","0",,"868"
"a38pr3vi48atrsi5wz16wilg","AQB","MGQC","Quiché Airport","fukz7j7llphpsyxrjpdpqfd8","Quiche","-06:00","15.01223","-91.15055","0","1",,"6589"
"a3aaahr0x73clk5e89v7c5tv","APG","KAPG","Phillips Army Airfield","qizbqars5grvxc71q0kv0b8z","Aberdeen","-04:00","39.46556","-76.16583","0","1",,"6236"
"a3dzxkzshyzro11duup29c7o","NRM","GANK","Keibane Airport","kifumz4wuf0cvcoqmncxmyz9","Nara","+00:00","15.23084","-7.26416","0","0",,"3842"
"a3fy1b12yuxbc4t2d5ns8pzy","WSI","bcdp","WESTERN SYDNEY INTERNATIONAL","er7l0ka2vk66uvlw96mvffv6","SYDNEY","+10:00","-33.885","150.69949","0","0",,"9096"
"a3iye6saokqkxdapv0f9olcp","OMI","OIAJ","Omidiyeh Airport","opbfa4bb4sgmq3uw75dlzmlk","Omidiyeh","+03:30","30.83","49.53","0","1",,"5905"
"a3or2ldeozx0fm8jf6zawj6b","PAW","f3nb","Pambwa Airport","zx7c16d3ted0x4k0xu37jj6m","Pambwa","+10:00","-10.58","151.10001","0","1",,"6083"
"a3oz82vj3nf6o3ofsry5sayl","AVO","KAVO","Avon Park Executive Airport","ao42ati1zj95l9j16qry79n7","Avon Park","-04:00","27.59445","-81.52638","0","1",,"530"
"a4138ot42yzmowsbfgp2ckg4","BXY","UAOL","Krayniy Airport","lseb5tkersk1dlomz8iszwf3","Baikonur","+05:00","45.62362","63.21389","0","1",,"4116"
"a44qnp0m4t072lkixm1icytv","PCQ","VLFL","Bounneau Airport","obrghyhm3kkua0fb6ausowhm","Phongsaly","+07:00","22","101.9","0","1",,"1050"
"a482d85rx7wxt8g9lmwuf9iu","BEH","KBEH","Southwest Michigan Regional Airport","ggmbexfy07zj3bs8pb4b9344","Benton Harbor","-04:00","42.12834","-86.42833","0","1",,"7571"
"a48ab63787s0ic7f1a2bom7v","HWK","YHAW","Wilpena Pound Airport","ppiqjben29miy534prgg4sct","Hawker","+09:30","-31.88","138.39999","0","0",,"8757"
"a48r39aq820cteurl4b7dd3e","WHN","o582","WUHAN HANNAN","c6jrk2y4sh8816odb9uwl5ed","WUHAN","+08:00","30.24973","114.0622","0","1",,"9201"
"a4aqdel5qlav5cmx4rh18ltg","MLB","KMLB","Orlando Melbourne International Airport","t5by0kzpkh64h2639q2cpqnn","Melbourne","-04:00","28.10278","-80.64583","1","1",,"5959"
"a4htxrqlismghif8wybl8sz3","YXZ","CYXZ","Wawa Airport","lgrh37gy539n8mpns8cirz8q","Wawa","-04:00","47.96667","-84.78666","0","0",,"8652"
"a4mqhmws5w81082uzj79s5r1","DRI","KDRI","Beauregard Regional Airport","lj2aba8wkz88wn65ictxtzls","DeRidder","-05:00","30.83223","-93.33416","0","1",,"760"
"a4pax0dlcqnwp4koa07xtw1a","BKH","PHBK","Barking Sands Airport","xardkrlcvwqqu4rjefdcd8kb","Kekaha","-10:00","22.02278","-159.785","0","0",,"674"
"a4qch8ibsu9gvubsxu9glo8y","RZZ","KRZZ","Halifax County Airport","b4j5txyz1braciy25aea3qex","Roanoke Rapids","-04:00","36.44306","-77.70888","0","0",,"3017"
"a4zy6hlbsgykxctsbaafnpp9","TWF","KTWF","Magic Valley Regional Airport","drfk38s7urkizgk4tnyq5if5","Twin Falls","-06:00","42.48167","-114.4878","0","1",,"4699"
"a50vozpe12go93s30dtqy960","TOI","KTOI","Troy Municipal Airport","spsh9z6brv8xrfq6zasudtxy","Troy","-05:00","31.8","-85.97","0","1",,"8221"
"a59zx2fnv51enroogp686ta7","CEC","KCEC","Del Norte County Regional Airport","bm59wfn40uf4y3tl17k6cn5b","Crescent City","-07:00","41.78028","-124.2367","0","1",,"1960"
"a5bps4mawpn9ddiecxwt477h","GAU","VEGT","Lokpriya Gopinath Bordoloi International Airport","gt2ncjx38923ttq4jqia9m21","Guwahati","+05:30","26.10612","91.58584","4","1",,"4523"
"a5mmly2oodbpsjwisx5qu1hw","ONP","KONP","Newport Municipal Airport","mvf80lkl5s3u4j5sr0vg6nma","Newport","-07:00","44.58001","-124.1","0","0",,"5630"
"a5t271ilz1vmrg0egkl7aw3u","HOA","HKHO","Hola Airport","d3gn3r2s6dde632syeqh7kld","Hola","+03:00","-1.52111","40.00389","0","1",,"3187"
"a5vwqbjx2bail13ri09gb1hr","LNZ","LOWL","Linz Airport","c3w6wq0bavi5s44tiudu84kb","Linz","+02:00","48.23334","14.1875","1","1",,"4487"
"a6aod40hertq99ryaj3gtado","XVL","z4xb","Vinh Long Airport","rankocc2ziup0t3n4vogsndx","Vinh Long","+07:00","10.25223","105.9461","0","0",,"8508"
"a6jyb9rb7qg4fy1070xqglsf","DSN","ZBDS","Ordos Ejin Horo Airport","tim34p8uecusito75rkbgm3r","Ordos","+08:00","39.49389","109.8617","1","1",,"5945"
"a6jzbjxqlkwvu8xxqkcxj6g3","FOO","WABF","Kornasoren Airport","tawmd1gbzj81e99i6y2s4kyz","Numfoor","+09:00","-0.93638","134.87199","0","1",,"4078"
"a6kptcca5qssws94fxm4o71h","AGX","VOAT","Agatti Airport","sepju1865ph39gj6kbwcvg66","Agatti Island","+05:30","10.82362","72.17612","0","1",,"66"
"a6v3m6ifw2ewc4qa97pitklq","CAN","ZGGG","Guangzhou Baiyun International Airport","mk0gmks2r74dl2wzamn5u9j3","Guangzhou","+08:00","23.3925","113.2989","27","1",,"2943"
"a6wt2ha6mfs0kae8n3d8wl8b","ENS","EHTW","Enschede Twente Airport","p2qn809q4hc5ihkt4a97x9x0","Enschede","+02:00","52.27","6.87417","0","1",,"2321"
"a7c2o6pivab8yu4fnd6o9jvz","MAA","VOMM","Chennai International Airport","jvbd0b37nr3m0wa7hmidzj8i","Chennai","+05:30","12.98834","80.16584","10","1",,"1482"
"a7d71um06636sdifue7wr9zg","ENG","l9d3","ENGGANO AIRPORT","x5lfjsv1c3u1btv6vhg5c8h0","BENGKULU","+07:00","-5.30638","102.1906","0","1",,"9045"
"a7e2son6hi02ea2922fzly6n","CJH","b75r","Chilko Lake Airport","oyrf4qtmb2g3uzrwaujjec50","Chilko Lake","-07:00","51.6275","-124.1442","0","0",,"1529"
"a7ernnb5w1ewespksthvaa0w","NEC","SAZO","Necochea Airport","chro5fq3b1726wrqgz9uu04k","Necochea","-03:00","-38.48527","-58.81388","0","1",,"5578"
"a7g08p3ztohdaqak9zxcbmi8","YFG","hliz","Fontanges Airport","d3763htrca93m5aluwx1vwcm","Fontanges","-04:00","54.55334","-71.1775","0","0",,"2488"
"a7gc81r2xldfolcp3pzstg20","BZG","EPBY","Bydgoszcz Ignacy Jan Paderewski Airport","zecrmmwbwvgovg401z6ckqzi","Bydgoszcz","+02:00","53.09667","17.97778","0","1",,"1201"
"a7lzno0hpzlgg5unl5eupl97","JUV","BGUK","Upernavik Airport","y2s58t89mdamqgfepjw781e8","Upernavik","-01:00","72.79028","-56.12888","1","1",,"8361"
"a7xm6ntkx0ulyd7a967vygjy","YSY","CYSY","Sachs Harbour","wxjm3a47w1ccrc1bd8u6hii0","Sachs Harbour","-06:00","71.99389","-125.2425","0","0",,"6928"
"a88e1653cbxn91ur6ms4yl9r","SOB","LHSM","Hévíz–Balaton Airport","aplty7z51gyvic0yycgi6zfu","Hévíz","+02:00","46.68639","17.15917","0","1",,"3152"
"a8acsoa71ef941mgempw2098","GAV","ingl","Gag Island Airport","og9lbjg3j5i4frirh0c1ss5y","Gag Island","+09:00","-0.45","130.89999","0","1",,"2612"
"a8d9ljmv8i7wfz3mynvknxkj","VIR","FAVG","Virginia Airport","yos8l4bs8l1otwtlgu37vixj","Durban","+02:00","-29.77055","31.05834","0","1",,"8516"
"a8mytgesajqxf0obhvyv6uln","AGQ","LGAG","Agrinio Airport","kjmyo4wt5paokpenogfh7t6j","Agrinion","+03:00","38.60195","21.35112","0","0",,"75"
"a8wa4iu47omrsq834in7hujl","CKU","l271","Cordova Municipal Airport","rf9o4ctfcdhg9dyoqyl3gn9m","Cordova","-08:00","60.54","-145.7","0","0",,"1747"
"a8zpvhzv8szbzmwsx4gsgggl","CCO","SKCI","Carimagua Airport","nk0is263ijvs3k9tg6m48ci8","Carimagua","-05:00","4.56417","-71.33638","0","1",,"1335"
"a950xyrn2btrewh7sa1k6ij6","LVO","YLTN","Laverton Airport","n1rz5tk58c5ty5ww539xcrrp","Laverton","+08:00","-28.61555","122.4239","0","1",,"4350"
"a9bmyv48m8umm9bl0ltkuzsg","THA","KTHA","Tullahoma Regional Airport","ntjrrtjmfobq1xpd0mx3j6xa","Tullahoma","-05:00","35.37973","-86.24083","0","1",,"8258"
"a9ew2ecp2eep4wy06psjp1o0","YAA","qi2m","Anahim Lake Airport","gtzry1z6m8czrg1snpbc308b","Anahim Lake","-07:00","52.45389","-125.3061","0","1",,"280"
"a9fr21l1ncbij7xqlrlfxz2a","LDV","LFRJ","Landivisiau Airport","id0lmnma717q97fv767twwmh","Landivisiau","+02:00","48.53028","-4.15166","0","0",,"4273"
"a9gw0fht0ztuqm9b56bhmsvh","MPZ","KMPZ","Mount Pleasant Municipal Airport","e62fycv4kzn3lfq5g8ec5ldi","Mount Pleasant","-05:00","40.94723","-91.51388","0","0",,"5374"
"a9m0fb2ishkf1ay4mgw39z3j","YBP","ZUYB","Yibin Caiba Airport","thnic80wghlqsfhjbuqswex1","Yibin","+08:00","28.85252","104.5263","1","1",,"8912"
"a9p3tndb0z307mv8bgqe13h9","KNB","KKNB","Kanab Municipal Airport","vyv39nrfau6ye5ipstcfohqw","Kanab","-06:00","37.25","-112.8","0","0",,"3715"
"a9u2t6zpej8le49a726jaoa5","IRA","AGGK","Kirakira Airport","je466fjgfy1nvae2x1foodhb","Kirakira","+11:00","-10.44972","161.8981","1","1",,"3982"
"aa00fbg5mf1l3i4b8aou54vf","LGN","rkaj","Linga Linga Airport","qb9p07li37pc3qugfzsb9kpx","Linga Linga","+10:00","-5.68305","149.39999","0","0",,"4482"
"aa11h80gmuucwmxnb1nau45p","GOE","wllj","Gonaili Airport","pv28hp5sikxo96zzwyahnnk8","Gonaili","+10:00","-5.38305","151.89999","0","1",,"2812"
"aa7293lzwtbk0c7juasw4up1","OKF","FYOO","Okaukuejo Airport","hnpqjamsjeevvegathhwdrqi","Okaukuejo","+02:00","-19.17","15.93","0","0",,"5865"
"aa8c12jbxzi65g2x96nljszd","BFW","DAOS","Sidi Bel Abbes Airport","kygdhw6kda0cdgs0fe1rnyqy","Sidi Bel Abbes","+01:00","35.17223","-0.59472","0","0",,"7385"
"aa97nz5k38dtm5q48lyik414","YOH","CYOH","Oxford House Airport","h1t2lhs20akk3dplydgvugq6","Oxford House","-05:00","54.95","-95.28","1","1",,"6028"
"aab6fi7k5porqv39d6asdcj7","CMQ","YCMT","Clermont Airport","ggoq8pkh9g925wslpwyte4a6","Clermont","+10:00","-22.77305","147.62061","0","0",,"1616"
"aadoq3x80dlmv1srtmki234q","MMZ","OAMN","Maimana Airport","yqc88ooi3cged75e4v1dsswa","Maimanah","+04:30","35.93028","64.76139","0","0",,"4713"
"aah8yhkffhe99pk3wpevtqxd","BTK","UIBB","Bratsk Airport","vimx54iys16seulfcy8l65fy","Bratsk","+08:00","56.37084","101.6986","0","1",,"1083"
"aarwr02pra3ccagxrej39ejh","KPO","RKTH","Pohang Airport","c9afs7j06yviewr0z09lhhj5","Pohang","+09:00","35.98778","129.42059","0","1",,"6328"
"aas40xf2pbmdwrdtxr1lcaph","BVP","ouv8","Bolovip Airport","pkgdfzw4h9wni3hzfbcm13pq","Bolovip","+10:00","-5.38305","141.7","0","0",,"998"
"aatd1q2no4hpd69lun2a7fk6","SIQ","WIDS","Dabo Airport","r3kjhasr9jpkbt78pkj8lsgm","Singkep","+07:00","-0.48166","104.5811","0","1",,"1847"
"aavcdbkkgzgokz6bxsclnu2g","HUK","z8sr","Hukuntsi Airport","gj0difrljuern4s7m0sttnse","Hukuntsi","+02:00","-23.98972","21.75806","0","1",,"3254"
"aawj5bmp7e7fiqa54z0qozd2","SMZ","SMST","Stoelmanseiland Airport","ksuaji2f2evlg8r3kgg4wc7v","Stoelmanseiland","-03:00","4.35112","-54.41833","0","0",,"7671"
"aayc5lvem7tmvqqwlwn8z72h","YVM","CYVM","Qikiqtarjuaq Airport","rbsp0gse91j8tgtaewwq77av","Qikiqtarjuaq","-04:00","67.54584","-64.03138","1","1",,"6558"
"ab06n9qgodo2a1mtdvy93m2u","EPU","EEPU","Pärnu Airport","r4pjctqo4fz6xfu0geshmrf4","Pärnu","+03:00","58.41917","24.47278","0","1",,"6138"
"ab0iae69dj7yryxk30po8wur","MXG","u5co","Marlborough Airport","o110flplr72h5z622et05l8h","Marlborough","-04:00","42.34612","-71.55222","0","0",,"4896"
"abia2gcmjv4ogz5e09skw9ji","SHU","YSMP","Smith Point Airport","ec0qoz5831eff9u339ajyyla","Smith Point","+09:30","-11.13194","132.1575","0","1",,"7492"
"abkcxern22ll2bkivk5lzd6d","GFR","LFRF","Granville Airport","fz4p4zoryk9eu7v5oleaxlci","Granville","+02:00","48.88","-1.57","0","1",,"2880"
"abmnbzxeslk63j07t0bpe0ro","COI","KCOI","Merritt Island Airport","er9gwu0d172arh6lvuvo569x","Merritt Island","-04:00","28.34167","-80.685","0","1",,"5071"
"abqa8refuikh6oau4zfpyiaa","BUY","YBUN","Bunbury Airport","tx9akri38yl6hju3bzlho8ev","Bunbury","+08:00","-33.32","115.6","0","1",,"1166"
"absasgvj4yafo5bzfnkg47oh","PET","SBPK","João Simões Lopes Neto International Airport","mfyav58jlsozubddmh1s0lrq","Pelotas","-03:00","-31.71833","-52.32777","0","1",,"3560"
"absfjal0878ipm6edydqxmo5","KTU","VIKO","Kota Airport","zxo5m98reuw5k0sgka4llmlm","Kota","+05:30","25.16028","75.84556","0","0",,"4090"
"ac2w2vqv0eenzh944oy8a1l1","LTG","VNLT","Langtang Airport","pbz7sa37trz0k7rfu57eziyr","Langtang","+05:45","1.28306","103.9","0","0",,"4281"
"ac4myt3rhaunp3hk9it9fp4d","SKA","KSKA","Fairchild Air Force Base","k5wqskghqzx3p5biwzho5bqo","Spokane","-07:00","47.615","-117.6558","0","1",,"2399"
"acc9se23tg5cr9la0ownvg52","TRF","ENTO","Sandefjord Airport, Torp","u6b6u7y8zwgf7avwe2abm77y","Oslo","+02:00","59.18667","10.25862","1","1",,"7023"
"acdsjuaen1unyue9svc8w6mk","LKZ","EGUL","Royal Air Forces Lakenheath Airport","fuup0frdrbcxoryc2adlyzni","Lakenheath","+01:00","52.40945","0.56112","0","0",,"6873"
"acr5oo3wy65d0yyiz9m1fsq0","SBX","KSBX","Shelby Airport","bryl449v07gewxep38fnix0q","Shelby","-06:00","48.54084","-111.8664","0","0",,"7331"
"acumitddlmtrh1nrbenmo6bp","PIB","KPIB","Hattiesburg-Laurel Regional Airport","jnr440s4sw6yewwqx1sk3u8a","Hattiesburg/Laurel","-05:00","31.46723","-89.33694","1","1",,"3083"
"acykce0dsb4y3b82o7650nmj","JSI","LGSK","Skiathos Island National Airport","qhqm36dcgvyowdbcetyafsjw","Skiathos","+03:00","39.17723","23.50362","1","1",,"7469"
"adic6pbt7fj4hcou2m4gw8us","EBW","FKKW","Ebolowa Airport","crdw282zz1dzibeohnt1oqux","Ebolowa","+01:00","2.87612","11.185","0","0",,"2182"
"adj20dhjxlpw1myp1w0082ft","FRW","FBFT","Francistown Airport","usi0huxjhirqxs7n7mldr8i7","Francistown","+02:00","-21.15","27.47","0","1",,"2551"
"adsx4kmsicid2b2jlyklvltm","ONL","KONL","O'Neill Municipal Airport","w9357kqb3bqzi9ikxv8jfjm5","O'Neill","-05:00","42.46945","-98.6875","0","1",,"5913"
"adwq9wx471o60n8ifudfiovi","PUF","LFBP","Pau Pyrénées Airport","dxsqhdbde1a9i2ek5fso6jbz","Pau","+02:00","43.38","-0.41861","1","1",,"6164"
"aegbie3bo585k3eizu85ixkd","ULY","UWLW","Ulyanovsk Vostochny Airport","iyp3zqg5kj458m1f6q5nfk4l","Ulyanovsk","+04:00","54.40112","48.80278","1","1",,"8339"
"aelhccw00015yjkbl97sq3sk","GRY","BIGR","Grímsey Airport","o52d4eom8vn0zafelhnkvdto","Grímsey","+00:00","66.54667","-18.01722","0","1",,"2922"
"aer1ti0pf95uq2sr9zmftpbs","SMO","KSMO","Santa Monica Municipal Airport","ko5oy9k9bt6nlu2b7k2169br","Santa Monica","-07:00","34.02","-118.5","0","1",,"7114"
"aev1l7hozeo2ncc7noh33h1q","IVO","wam0","Chivolo Airport","elgiwmf6w8n4hpkqi19oquc8","Chivolo","-05:00","10.02001","-74.68","0","1",,"1561"
"aexyoyqv661ws5mbqwc03976","MFI","KMFI","Marshfield Municipal Airport","c7jmjgd3o79zbu3z9v4vw2yy","Marshfield","-05:00","44.63","-90.18","0","0",,"4913"
"af0x4bpwlbzx9e6q5oku4z1q","LXG","VLLN","Luang Namtha Airport","hhy39dzuphxsmnte92tvo1w2","Luang Namtha","+07:00","20.96056","101.4025","0","1",,"4597"
"af4uuud4j71dkbv2ybfn7bwq","EMI","AYEE","Emirau Airport","s6d5gcw78c1upks5ccphjkme","Emirau Island","+10:00","-1.65","150","0","1",,"2303"
"af7jsm904qhf1g1862mxcdnx","OKN","FOGQ","Okondja Airport","uw47i93kkpe7rhzookz9wt3l","Okondja","+01:00","-0.66527","13.67306","0","1",,"5873"
"af8cuu9bgq0wb976otfrhcx5","MET","YMOT","Moreton Airport","fsc6bhueh8cdpo5h485ku2j0","Moreton","+10:00","-12.75","142.8","0","1",,"5311"
"afe4yeouhvl3okyb222kgh86","KUX","fx0u","Kuyol Airport","p1fqnhqjin4uc4gdjvracifd","Kuyol","+10:00","-5.37222","141.62421","0","0",,"4170"
"afgs59v3bvagn8qbsqswc6x1","LMD","v31n","Los Menucos Airport","pk26s05uqqukbn7zqzy5imq0","Los Menucos","-03:00","-40.83","-68.13","0","0",,"4578"
"afj64bqbk0d5poi4nbf6927v","MTG","SWVB","Mato Grosso Airport","qiykqtkv2cq9sonqxp4x030h","Mato Grosso","-04:00","-15.02","-60.01999","0","0",,"4951"
"afkdd931uxn2mrc1u2gt2hej","SZK","FASZ","Skukuza Airport","d1mbfq1c0pqciqbb0hfhmbm1","Skukuza","+02:00","-24.96083","31.58862","1","1",,"7476"
"aflm0rrdl9nl33yhg9u5squq","ASL","KASL","Harrison County Airport","ou2hfq9lgco4g6l7fcingsrf","Marshall","-05:00","32.55","-94.38","0","1",,"3059"
"afnub71ig8jhn77zue1mnoe2","OZZ","GMMZ","Ouarzazate Airport","elow1icsv3e6sgalvkmmbc3w","Ouarzazate","+01:00","30.93917","-6.90944","0","1",,"6006"
"afs7qtk07a9ezpy2t5t0rjle","KDR","AYKC","Kandrian Airport","yqurqvn704x1gn87lcnli8xr","Kandrian","+10:00","-6.19","149.5475","0","1",,"3723"
"aft875qfsvtfeer0gsqfqq0p","VLE","lrnz","Valle Airport","fwzdp0937a53chb2ow96wb77","Grand Canyon","-07:00","35.65056","-112.1433","0","1",,"8420"
"afud1s1tax26f2bwfg48476f","NER","UELL","Chulman Neryungri Airport","jefyab7elb7cfb5noa23gma5","Neryungri","+09:00","56.91389","124.9139","1","1",,"1581"
"afvku01fqgeo7p4tlx6v85pj","MGI","nyw3","Matagorda Island Air Force Base Airport","xu4hvq3tw3i8dfilniavhnbm","Matagorda Island","-05:00","28.12","-96.8","0","1",,"4940"
"ag7rrypyga6p9z1ygijpsc96","YOL","DNYO","Yola Airport","x9bqou0jair6xum1zrh1hd6c","Yola","+01:00","9.2575","12.43056","1","1",,"8927"
"age066mguroxlm77g178fisy","WRT","EGNO","Warton Airport","dsx10jbmdyh13bkytbvqw2g7","Warton","+01:00","53.74334","-2.89138","0","0",,"8618"
"agely5vra65ir1a7hv7vyev2","DVR","YDLW","Daly River Airport","da3puebzjo3w6ebgc1bs5tn0","Daly River Mission","+09:30","-13.75","130.7","0","1",,"1873"
"aggrnnumoeotyuthy7mmygcq","SXT","WMAN","Sungai Tiang Airport","kj1n4dbev9yig9gwuafzej31","Taman Negara","+08:00","4.31695","102.4","0","0",,"7753"
"agjthcvcs4e5z41pjqyd4svp","MCX","URML","Uytash Airport","qbfqef5sca0s1il067h6dcrz","Makhachkala","+03:00","42.81695","47.65223","1","1",,"8402"
"agkruw4xe8bdog8ff944zz2x","RSN","KRSN","Ruston Regional Airport","zmwcmq3psur5bbacmnifkxct","Ruston","-05:00","32.50889","-92.59027","0","0",,"6912"
"agqdoqtdfvf9vu2plnufgk0t","YXL","CYXL","Sioux Lookout Airport","kirdbwp5lql6nw2n9ete7e5t","Sioux Lookout","-05:00","50.11389","-91.90527","7","1",,"7442"
"agqnykqyru6xemobf8db4s8q","ROD","FARS","Robertson Airport","g2fmk8vake7an10xm40pnp0u","Robertson","+02:00","-33.81222","19.90278","0","1",,"6783"
"agtl5nfvtqjm9t9x2u7xekyk","CVM","MMCV","Ciudad Victoria International Airport","u9pjm83l04a79b0deeb7ujro","Ciudad Victoria","-06:00","23.70334","-98.95638","0","0",,"1607"
"agzqssuvfskcyejkwk7v1c2l","GAF","DTTF","Gafsa Ksar International Airport","mjvqcwuwc1o4elsqngyph276","Gafsa","+01:00","34.42195","8.8225","0","1",,"2610"
"ah0k7botf22iiiguctp5xcip","TCG","ZWTC","Tacheng Airport","lwlhfm6lq3px67dic3yq9r2d","Tacheng","+08:00","46.6725","83.34084","0","1",,"7807"
"ah96kcfsgfwim3806y7h41xh","GJT","KGJT","Grand Junction Regional Airport","bfmiqimkdpdyq79ocdaf1erq","Grand Junction","-06:00","39.12223","-108.5292","1","1",,"2865"
"ah9utdxp2xx1n7r0dcc322o9","FOE","KFOE","Topeka Regional Airport","oor1jqui5o09gxhbtqnyydu1","Topeka","-05:00","38.94723","-95.67388","0","1",,"8154"
"ahbb6j0lsi15b9yaqyiuhyak","EKN","KEKN","Elkins-Randolph Co-Jennings Randolph Field Airport","eg7mm3u3p5bra8r0ntj1fc0g","Elkins","-04:00","38.88945","-79.85722","0","1",,"2261"
"ahbo7mnqobxlbxxg6oiitzqz","BDT","FZFD","Gbadolite Airport","js81lc9galevf512oi8gl6gs","Gbadolite","+01:00","4.25334","20.97528","0","0",,"2682"
"ahe2l6781gyo2ayk3ulf26g0","VBP","VYBP","Bokpyin Airport","nen6qoakxyw218yy96v7ppx5","Bokpyin","+06:30","11.15112","98.73556","0","1",,"991"
"ahe80jkzo9vtb7l8gqpmyzy8","YHZ","CYHZ","Halifax Stanfield International Airport","xm16rql7sjeke0vg6jpbu684","Halifax","-03:00","44.88389","-63.51166","6","1",,"3018"
"ahf2r3dpxzgpvpmcgmt4dql1","BXW","WARW","Bawean Airport","wnbrqgoxrcqu9d7c2tg8pyv3","Bawean","+07:00","-5.72361","112.6792","0","0",,"744"
"ahm8q2tygdeooqhll1atkmkt","KWT","PFKW","Kwethluk Airport","evvupzcqo6umte8lu60upw56","Kwethluk","-08:00","60.8","-161.5","1","1",,"4173"
"ahnyepyguvy6u56l4bqwo4yd","WWR","KWWR","West Woodward Airport","n9dsmwgs40tg5zdjg1xzab3x","Woodward","-05:00","36.43","-99.52","0","0",,"8697"
"ahqkrzt29fubo8hhsyw8pfvp","RPU","x0sf","URUCU","jdrm1oiqseoxvfdaven6sxc0","COARI","-04:00","-4.88416","-65.34916","0","0",,"9083"
"ahvdjmqmcs4emi7kjxp4r8b5","KHG","ZWSH","Kashgar Airport","pugyjcffqldbrskfjxnn0ku2","Kashgar","+08:00","39.54306","76.02","2","1",,"3786"
"ahvmtxdutzrsizyn9yn5xeuz","BXZ","AYNS","Bunsil Airport","sgjleo9mmql5dgqfw3flc9t8","Bunsil","+10:00","-5.71694","147.89999","0","0",,"1171"
"ai1j2rmrwa3ipoo8bj0egkxz","MCD","KMCD","Mackinac Island Airport","y0m2rpmh5k6ezjtro2lwlowq","Mackinac Island","-04:00","45.87","-84.63","0","1",,"4672"
"ai3b5rqmhltfjqaqqfvjue5y","KTC","k547","Katiola Airport","c6lf7k3a14a81huq06col5ik","Katiola","+00:00","8.13389","-5.06527","0","0",,"3801"
"ai3c3xozzahj4h3z2zo46tgg","RMP","objr","Rampart Airport","ldgr6vyg95m6tvalmbjjadc1","Rampart","-08:00","65.5","-150.2","0","1",,"6641"
"aibes086karwu6e22gpa3iv0","DRW","YPDN","Darwin International Airport","qx4be6tfe3g7z80jnxmuobh5","Darwin","+09:30","-12.41472","130.87669","4","0",,"1902"
"aieskl0ygp5ztfkmbvgbl7oe","BMR","EDWZ","Baltrum Airport","ylzqfy4ukxbqgg0mp7kfg71y","Baltrum","+02:00","53.73001","7.38889","0","0",,"617"
"aii9lk6syz9ogl96f22zy3yi","TSN","ZBTJ","Tianjin Binhai International Airport","wn0lifxhn24k8qrjhau9hztd","Tianjin","+08:00","39.13028","117.3528","9","1",,"8062"
"aix1l1w7y2brkw7docy70a9h","MSK","otz0","MORELIA","qaiuiy25jqmxpkw52dgz0f9a","PUERTO GAITAN","-05:00","3.755","-71.45833","0","0",,"9191"
"aj26oo1svv8hsv0xvmc62gq1","RBV","AGRM","Ramata Airport","f1yrcjhyc9vny33e467c21k8","Ramata","+11:00","-8.16805","157.6431","0","1",,"6636"
"aj9gy84kq7u4f8fwiwxg7uxk","BNE","YBBN","Brisbane Airport","ktsb8p8pnh9vfdn4avq2d9rk","Brisbane","+10:00","-27.38416","153.11749","35","1",,"1104"
"ajhq7i47o82ktprk6grqk4ae","AML","emt9","Puerto Armuelles Airport","f2j0y39dbjjiis435n79c1qf","Puerto Armuelles","-05:00","8.26806","-82.865","0","1",,"6496"
"ajk5xk1l5wnvqmbcto2hfqwz","TXC","dxxg","AERODROME ORSHA","oo0w2u9cirrs1kndb8ppdb56","ORSHA","+03:00","54.44028","30.29667","0","0",,"9088"
"ajobhdri42ohsh4xvqqj69qh","YKU","CSU2","Chisasibi Airport","gvqvans4gd0pjjszzogtg8sl","Chisasibi","-04:00","53.80556","-78.91694","2","1",,"1553"
"ajpdt79n8wyu26oihpd9szw6","FLV","KFLV","Sherman Army Airfield","ysq8cthsc1f0bb1kw1l8huke","Fort Leavenworth","-05:00","39.36834","-94.91472","0","0",,"7344"
"ak32rbrcbxamf3fqk1cbbc8g","FVL","YFLO","Flora Valley Airport","s52lsbsejfgjmh3rrysggpjg","Flora Valley","+08:00","-18.27999","128.39999","0","0",,"2476"
"ak5skmptsmnk148qy4h39qke","GNT","KGNT","Grants-Milan Municipal Airport","zjtexye8s4ba8seeiveb1u7e","Grants","-06:00","35.15","-107.9","0","0",,"2878"
"akd1yinroxpbu52czams1l4i","YAT","CYAT","Attawapiskat Airport","f94h928vg8pc56v0h78iliq5","Attawapiskat","-04:00","52.93","-82.4","1","1",,"493"
"akurmqo8p31yfq7q9ppnjrxx","KMX","OEKM","King Khaled Air Base","lqxd73q2ady43m0dsj0xs8jf","Khamis Mushait","+03:00","18.29723","42.80362","0","0",,"3963"
"akxk0okdxswbu61wmdb66x0r","ILQ","SPLO","Ilo Airport","u9gfkpyyeubczlow32o188hr","Ilo","-05:00","-17.695","-71.34388","0","1",,"3331"
"akyfj9ooi44qg99oxi4fdenr","OLX","HKOL","Olkiombo Airport","lc8dn91ysuvk3yynaq9cwprk","Olkiombo","+03:00","-1.40861","35.11028","1","1",,"5890"
"al0k4ccxmtntnw7391utq8am","JUR","YJNB","Jurien Bay Airport","o1ls7pkwp0vuy9cz57hrko5a","Jurien Bay","+08:00","-30.27","115.1","0","1",,"3629"
"al4kk545hp3632gd7u3jundo","JDE","xhwc","JIANDE QIANDAOHU","vrg0f7ckypgidmuvwj3hk2b6","JIANDE","+08:00","30.29362","120.1614","0","1",,"9183"
"alay32mquz9kw3m4bstsoljz","SJK","SBSJ","São José dos Campos Airport","ocop502spmtyk6d8on19pf8n","Sao Jose Dos Campos","-03:00","-23.22805","-45.86277","0","1",,"7148"
"alboz55trk5d9s5jmrtrc3u7","NGX","VNMA","Manang Airport","lib76v1ol16skfijcohu3xy0","Manang","+05:45","28.64167","84.08639","0","0",,"4773"
"alel65e163t2lujqmxgbm7e9","HBE","HEBA","Borg El Arab Airport","wgrzccqjcqzqbj74rfqjcbcy","Alexandria","+03:00","30.91778","29.69639","2","1",,"1022"
"alggq5cnjp9b2zkebrx6wt14","ERV","KERV","Kerrville Municipal Airport","qjag9eyabwdsftccw66rnfp0","Kerrville","-05:00","29.98","-99.08","0","1",,"3884"
"aljgcl6uo2jnd4zh2qrpj0n4","KDW","llsi","Victoria Resevour Kandy Airport","ysyat0jphj8r88mmqdfzc0lc","Kandy","+05:30","7.27528","80.78612","1","0",,"8481"
"alm94c2rpwlgr5dytzjbvdqt","IKU","UCFL","Issyk-Kul International Airport","ou498b3fi7hcuf9366uvidgx","Tamchy","+06:00","42.58778","76.71223","0","1",,"3428"
"alxejiubhlsitzuscmsjsr5k","WIT","YWIT","Wittenoom Airport","xhpjs386f461gdubfnkgpw8u","Wittenoom","+08:00","-22.27","118.3","0","1",,"8780"
"aly1dprr15av7tnf7396m1lh","YPL","CYPL","Pickle Lake Airport","guigkojlx494dp707sqe2fhx","Pickle Lake","-05:00","51.44639","-90.21416","1","1",,"6253"
"aly8grupgdv60qp5jo6a7b94","UAI","WPDB","Suai Airport","uy3x16cbdgx866ijkir2xkgq","Suai","+09:00","-9.30416","125.287","0","1",,"7703"
"am58qq33h8ird2itwouzox9x","SJV","SLJV","San Javier Airport","mwvlbnxhwvff5vq6mwrc1eo9","San Javier","-04:00","-16.26583","-62.47055","0","0",,"7049"
"am69nchsxc7vffjdzk1iwfxb","KJB","kj7z","KURNOOL","peei0e6hb8exum2yws92lkwb","KURNOOL","+05:30","15.71473","78.17806","0","1",,"9073"
"am9ftcsdt7l7dgsm0pqhic8d","SZL","KSZL","Whiteman Air Force Base","mcnkfdzt4sed55j33t43wzcr","Knob Noster","-05:00","38.73028","-93.54777","0","1",,"8716"
"amfwoshh4nvdurwcqdo3fyyg","AYY","m7if","Arugam Bay Seaplane Base Airport","fiaznkbbznuxkdj49h6cgcvj","Pottuvil","+05:30","6.855","81.83112","0","1",,"444"
"amgkf5qkitgtj0ja7vahlptv","YDA","CYDA","Dawson City Airport","eclu6h4y2v38hyw7fcxtnhen","Dawson City","-07:00","64.04306","-139.12781","1","1",,"1918"
"amh090dulp7lw4qccp6wd536","TIR","VOTP","Tirupati Airport","lti45gr2gjjgtoacrhsgjm7j","Tirupati","+05:30","13.6325","79.54334","1","1",,"8106"
"amoyx59h9mxl8an8md8lj4nf","KYS","GAKY","Kayes Airport","w01ksdros34w4bvzzx4fedz8","Kayes","+00:00","14.48112","-11.40444","0","1",,"3826"
"amrtexta8f4l2ifdvnvkn79d","TAI","OYTZ","Ta'izz International Airport","x55byolbqzl8vl1uqjyvlo07","Ta'izz","+03:00","13.68584","44.13917","0","1",,"7833"
"amyckoo0fkbejk3fokpwg7y2","MMU","KMMU","Morristown Municipal Airport","dk80kqwk6g6bdk70ah00bt3y","Morristown","-04:00","40.79945","-74.415","0","1",,"5326"
"an753t13chc4gc3amdhs43yd","HVR","KHVR","Havre City-County Airport","slzj9i2h2ccsvkpjeeme7h8r","Havre","-06:00","48.55","-109.8","0","1",,"3089"
"an7gvwesbfner17xkkcp4mbo","KNK","PFKK","Kokhanok Airport","c2w4sezfdndplqqmbikucbuv","Kokhanok","-08:00","59.43389","-154.7981","2","1",,"4037"
"an7xvqw9ribofwxmj5usn8c5","SYH","VNSB","Syangboche Airport","z6t6ceq1dp7igxuavvgm1m8h","Syangboche","+05:45","27.81112","86.71278","0","1",,"7783"
"ancy2defwo8ccjfe4o03qw05","GBE","FBSK","Sir Seretse Khama International Airport","gfl19ufel7qn51kvg70c91s9","Gaborone","+02:00","-24.55","25.92","1","1",,"7450"
"anmwhopxwxv2unqwmyo2ixb5","KCL","PAJC","Chignik Lagoon Airport","bs3w1nd1hn8eirlhg8m535i7","Chignik","-08:00","56.3","-158.5","1","1",,"1521"
"anngovjo2qgn1gir1gkmq661","WKB","YWKB","Warracknabeal Airport","blqko8evf1f34ddq9pcxahv9","Warracknabeal","+10:00","-36.32111","142.4189","0","0",,"8609"
"anoqsj5of9pvsbfnhiinsi0t","GMB","HAGM","Gambela Airport","dcs6as6730rluj6hhihfem8v","Gambela","+03:00","8.12889","34.56306","0","1",,"2628"
"ant9nxj3uxi55dx6ffe7keoi","CVO","KCVO","Corvallis Municipal Airport","p073asoi6srpw3gv0bqi46vc","Corvallis","-07:00","44.49723","-123.2897","0","0",,"1771"
"anvqsrokpni6qxuascoja0is","LPK","UUOL","Lipetsk Airport","hr1yryjn3uuctpqmv0do9om6","Lipetsk","+03:00","52.70278","39.53778","0","0",,"4488"
"anx9ryjc57nvobpm5ofo344m","NUI","PAQT","Nuiqsut Airport","b6ls5psd2nbdhz6857gqdo1j","Nuiqsut","-08:00","70.22","-150.89999","1","1",,"5785"
"ao0t11hu5o5tup6w94ipgcb3","EDR","YPMP","Edward River Airport","jbzkdt44e6u62225yw0eyvnj","Pormpuraaw","+10:00","-14.89666","141.6089","1","1",,"2200"
"ao1x5xf8vfffy67hw5v00jst","TDA","SKTD","Trinidad Airport","hwxl248cf5vq62ui7diowag2","Trinidad","-05:00","5.43195","-71.65583","0","0",,"8209"
"ao32svtwpndeki0s983d4cy4","VAF","LFLU","Valence-Chabeuil Airport","ggqtaam0lewv4ehm0gqoup5g","Valence","+02:00","44.91612","4.96889","0","1",,"8416"
"ao6i0tj9cjmybv5jg7300tkv","MNB","FZAG","Muanda Airport","gmpeavsqdtihe6il94ijzwt3","Muanda","+01:00","-5.93055","12.35139","0","0",,"5389"
"ao7d3frxn82s20hgzrf58huy","YST","CYST","St. Theresa Point Airport","kn9vqk6h0v4ayjh5ws6yyww8","St. Theresa Point","-05:00","53.84556","-94.85194","1","1",,"7693"
"ao8f3yppkhfxlm2u8b7erp13","NDC","VAND","Nanded Airport","isecyydhzrpnb17lz24ottdh","Nanded","+05:30","19.18167","77.3225","0","0",,"5510"
"aoclsqlzxlk68y6w0zskmlfp","VYD","FAVY","Vryheid Airport","hlvaqozi5ca0zi6u7arpdwpy","Vryheid","+02:00","-27.77999","30.8","0","1",,"8548"
"aokdxkrfzf14my7dtewfiwwv","GIB","LXGB","Gibraltar International Airport","p5g7juo23stcntq1yy74b6t8","Gibraltar","+02:00","36.15112","-5.34972","1","1",,"2745"
"aomnv9rq6xg743nt41vv4ts9","LAX","KLAX","Los Angeles International Airport","sllmtoctg4aibzbdgovl4sc7","Los Angeles","-07:00","33.9425","-118.4081","53","1",,"4570"
"aon42mi0qlph47xgvaguohmg","YAR","CYAD","La Grande-3 Airport","e24zx7voxmcceje25th2altv","La Grande-3","-04:00","53.57195","-76.19","0","1",,"4213"
"aopnqmtczqhmulaqw47yoty3","ENB","YEEB","Eneabba Airport","p7cqwzycxdotljyn6hvz8l4m","Eneabba","+08:00","-30.08","115","0","1",,"2310"
"aopnqu9mxupeouc8ntsas3uv","GFO","SYBT","Bartica Airport","mputipf1m9tx06fsr2va2109","Bartica","-04:00","6.42","-58.58","0","0",,"699"
"aovzz7umqn3vhhx8zdz6ghov","LJU","LJLJ","Ljubljana Jože Pučnik Airport","w206g4octwktls7nv6t35c6u","Ljubljana","+02:00","46.22362","14.4575","1","1",,"4503"
"aox2isgfaxeqd0mf0wad5aba","PLQ","EYPA","Palanga International Airport","e67vtc4b2kabip3z7kjvisx2","Palanga","+03:00","55.97334","21.09389","0","1",,"6056"
"ap385es1b1v2ij8vlb44iisf","UCT","UUYH","Ukhta Airport","ki2whvpbikuqdbwbtvzz95dd","Ukhta","+03:00","63.57","53.8","0","1",,"8325"
"ap5uaa1vwcg23bpzo31hbubd","YHP","nktk","Poplar Hill Airport","h3gtt5gdv6sg7v7rnu1otilr","Poplar Hill","-05:00","52.11334","-94.25555","1","1",,"6362"
"ap8mx8v7kvwzuaygn49e9z5k","MBH","YMYB","Maryborough Airport","w1tm3jyrl75jvxljp3uxwswq","Maryborough","+10:00","-25.51333","152.715","0","0",,"4921"
"apbj2qfha4uo25xwxj1khg45","HUU","SPNC","Huanuco Airpor","tfvc9nt42uox583g33d533az","Huánuco","-05:00","-9.87888","-76.20472","0","1",,"3243"
"apl4nkx3fn68vivzyatwyl5o","PAY","WBKP","Pamol Airport","oc2py37vhvnsls5jl331vrhn","Pamol","+08:00","6","117.4","0","1",,"6084"
"apo1sitcicyc299x4xhi471b","GRW","LPGR","Graciosa Airport","c9c1opkxz2v2fwahizdc6sti","Graciosa Island","+00:00","39.09223","-28.02972","0","1",,"2848"
"apollilyw9i0hgvovwwpxgy9","GYN","SBGO","Santa Genoveva Airport","jqa9hu13rsnqcjm7pj5vah9c","Goiânia","-03:00","-16.63194","-49.22055","3","1",,"7105"
"aprc0nzervx2zmbn5xm0xds0","LOL","KLOL","Derby Field","pwroocc3n9fid8aw5h3zutjb","Lovelock","-07:00","40.05","-118.6","0","1",,"1981"
"apuodn6ug0ioaqazji65tb86","DAB","KDAB","Daytona Beach International Airport","kcd53whteni0k2qx8r1c5tpu","Daytona Beach","-04:00","29.18","-81.05805","1","1",,"1922"
"apwhxp34xwc8c9zuvfpr01jr","LOM","htn9","Francisco Primo de Verdad National Airport","ewywg9a518azx992wggxnpvw","Lagos de Moreno","-06:00","21.25917","-101.9436","0","1",,"2549"
"aq5lphrlwmlcpsj3mfw927in","BEP","VOBI","Bellary Airport","e2hlrt4ah3o95ksruv77nwkk","Bellary","+05:30","15.16278","76.88278","0","1",,"795"
"aq7cifho372m8xos1wtaec90","KKY","EIKK","Kilkenny Airport","n1vgkce2ebxraqht8o1c844s","Kilkenny","+01:00","52.65","-7.25","0","0",,"3940"
"aq878m0tpreivua3k9f9l2zd","MWA","KMWA","Williamson County Regional Airport","xemsz9t9xi78l8upym1ey813","Marion","-05:00","37.75","-89.02","0","1",,"8745"
"aq87psxkckpewunh9ikgfwok","TLI","WAMI","Sultan Bantilan Airport","w45qx0ijzs0hlxyx601su25i","Tolitoli","+08:00","1.1225","120.7958","0","1",,"7732"
"aqbvn58adh0au0y5nqpxtulv","LGD","KLGD","La Grande/Union County Airport","yt36qk77wthhhhq30bb6c1cu","La Grande","-07:00","45.28917","-118.0061","0","0",,"4216"
"aqflu3l91zzxzplpe5wpu1ki","NTX","WION","Ranai Airport","bqevt4yfds9pwk3d7r0npz9w","Ranai","+07:00","3.90862","108.3878","0","1",,"6644"
"aqltna0gyhsqu8sjza0p97re","BYC","SLYA","Yacuiba Airport","bml3i2bl66ocw855cccahlgl","Yacuiba","-04:00","-21.96083","-63.65166","0","1",,"8847"
"aqmm85hqpjpfsht0zrg8nt8p","HHQ","VTPH","Hua Hin Airport","f98u05652mimulxlotv064sn","Hua Hin","+07:00","12.63612","99.95167","0","1",,"3236"
"aqo95c34t8361mg8fi2207yw","KCU","HUMI","Masindi Airport","biqqm0wrhmqvyt22vs2u42tr","Masindi","+03:00","1.68306","31.72","0","0",,"4929"
"aqtoikw6zkt40sy2vcdpz47d","TKO","FXTK","Tlokoeng Airport","vm3rcg873uyrz0jzv6y55zbj","Tlokoeng","+02:00","-29.23305","28.88306","0","1",,"8111"
"aqv9xu6j1k43q8ff2neh4jav","AAS","j0w5","Apalapsili Airport","zypw19x94pvgu7q3zilr59dp","Apalapsili","+09:00","-3.91694","139.3","0","1",,"367"
"ar4v48rcsmbarzhuj95ie0nw","HSZ","RCPO","Hsinchu Air Base","wxkji4jcfodofktstor8r6ou","Hsinchu","+08:00","24.82445","120.9411","0","0",,"3234"
"ar5jd2sz3npeqo9w179fr1ki","JJN","ZSQZ","Quanzhou Jinjiang International Airport","dvmfvg49nzgough5re2tybsv","Quanzhou","+08:00","24.79889","118.5897","2","1",,"6571"
"arauh6t5f1e8o304wvy75cnv","LMN","WBGJ","Limbang Airport","piknona4wqpuq1ddb5iwvpf7","Limbang","+08:00","4.80834","115.0106","0","1",,"4466"
"areauoqm8agcb4e7vvkrvddm","TUT","ab49","Tauta Airport","x0n7q65gujbztz2ymz4v5uqy","Tauta","+10:00","-5.8","145.89999","0","1",,"7946"
"arebf4eblmk1q213au4erjwe","DYM","i5ww","Diamantina Lakes Airport","eggc24a4n40ptndqecjl4aj0","Diamantina Lakes","+10:00","-23.76166","141.145","0","1",,"2004"
"arh35isx26sf0l9ssa3bbqce","CYO","MUCL","Vilo Acuña International Airport","cdbwnj06gyf8gvp3xfhqqt7b","Cayo Largo del Sur","-04:00","21.61639","-81.54611","0","1",,"8502"
"arh9ic59ev14q2m1cjsr26mp","ORI","wwhy","Port Lions Airport","j916rjc86xgk0zk5z5j1gxlp","Port Lions","-08:00","57.88","-152.89999","1","1",,"6406"
"arif1hjjvkbe8p3o28i6lmv6","KAR","SYKM","Kamarang Airport","m28j9cw907o9gbil34gdavyt","Kamarang","-04:00","5.88306","-60.62","0","1",,"3695"
"arj6bkp5mpffu6avo2loej7i","ORE","LFOZ","Orléans-Bricy","d5o4y5a1muox5ekyx1hk0rhl","Orleans","+02:00","47.89806","2.16389","0","1",,"5961"
"aronji3dvhseqsvtyu6yltwm","BCF","FEGU","Bouca Airport","vlbek98vbts0mm6cvsx5os9e","Bouca","+01:00","6.51667","18.27278","0","0",,"1040"
"arpkk1i9d46yvcu2c2hav8tk","SEM","KSEM","Craig Field","faksn5vi2j406f4fmat33tjr","Selma","-05:00","32.34389","-86.98777","0","1",,"1798"
"arpoy388zaqpw3g6wypt21zw","ZZG","ldt5","GE","rd3jto9ozwulf029e4iayrdh","FICTITIOUS POINT","+02:00","50.03","8.56695","0","0",,"9216"
"arzv0ip5f7hfgwiziwbjrx9y","OUL","EFOU","Oulu Airport","r8fyc6jwcmjrkxu7esvf0mhx","Oulu","+03:00","64.93","25.35445","1","1",,"6010"
"arzz2anxeub2f68sq8oct3pe","ONX","MPEJ","Enrique Adolfo Jimenez Airport","no553tv7eryguf8db6nw6irv","Colón","-05:00","9.35612","-79.86722","0","0",,"2318"
"as1nty61j06sm0bdkidi15xw","RAD","le5a","Road Town Airport","ffsobqco6om2stklkiyc0g5k","Tortola","-04:00","18.41834","-64.61777","0","1",,"6771"
"as1qjxpgycwoqbgel5hqeazk","MSE","EGMH","Kent International Airport","ij66vidv8lfatkfxt89k7ava","Manston","+01:00","51.34223","1.34612","0","1",,"3869"
"as2f8l6aul26qqgen1yr3lc7","HMS","j2ax","HAJI MUHAMMAD SIDIK","nrf7857e6g5br1m3jztgmiwi","MUARA TEWEH","+07:00","-1.02194","114.9256","0","1",,"9247"
"as3pl4leu7ztxvxnolrvquzp","WZQ","ap1p","Urad Middle Banner Airport","kh9gvnx6sir3ezwp74yrl2w9","Urad Middle Banner","+08:00","41.45945","108.5345","0","0",,"8365"
"asb7s8an93f15a6ad12fy006","MXQ","y6m4","LORENZO","ohgk9hvebwmosx2sjtccckxx","CAIRU","-03:00","-13.38944","-38.91","0","1",,"9141"
"asd483mu3sib31p5421skvp6","MKZ","WMKM","Malacca Airport","b2yagh3aqqfcre5u0c6d67of","Malacca","+08:00","2.26334","102.2517","0","0",,"4734"
"asebc369yv5krn3epsowjokm","RVC","h90k","River Cess Airport","m1yvtab0qfuwywj0ulgz3qy8","River Cess","+00:00","5.46695","-9.58305","0","0",,"6760"
"ash4bt2alv21ex8isn8fssdg","GXY","KGXY","Greeley-Weld County Airport","rfvia225yrrux9omp6moxux8","Greeley","-06:00","40.33001","-104.6","0","0",,"2897"
"askup64iwjfqzujw8mmhkvnn","MTC","KMTC","Selfridge Air National Guard Base Airport","mrgb8tqujr0a7fh68hdaux9g","Mount Clemens","-04:00","42.60834","-82.83555","0","0",,"7250"
"askwnhvsyeiphr3uv1mn5kpy","FSC","LFKF","Figari-Sud-Corse Airport","d2irmusp1cbrnrw1z4a5diys","Figari","+02:00","41.50056","9.09778","1","1",,"2457"
"asvv5x0ntevbxxq7xznso40j","ESL","URWI","Elista Airport","z1vktr4kaveqz7vgz0sllqxi","Elista","+03:00","46.37389","44.33084","0","1",,"2252"
"aswvt25s0eep4e00a8ux4596","GDL","MMGL","Miguel Hidalgo y Costilla Guadalajara International Airport","h7n24xiqqgihf468uixq5j7v","Guadalajara","-06:00","20.52167","-103.3111","9","1",,"5122"
"asx2fo3bzmin6o86r5dbneo8","TAL","PATA","Ralph M. Calhoun Memorial Airport","vc79mm2vk5xzwx8a3hb576ou","Tanana","-08:00","65.17","-152.10001","1","1",,"6632"
"asya5mvv6o40gp9gkuzc2ia5","KWD","hxki","Kavadja Airport","ugx66qd38c72qmas69iecxan","Kavadja","+01:00","-8","23.23","0","0",,"3815"
"at1dlmrwo8bl12b3z3kpmlym","BQH","EGKB","London Biggin Hill Airport","clna5onr6ymo4ctg9o1chsyd","London","+01:00","51.33084","0.0325","0","0",,"4530"
"at33nho8hrrek86rosigduqe","VCL","VVCA","Chu Lai International Airport","kebdtgrsnxfz0qk82cfyk2e4","Chu Lai","+07:00","15.40556","108.7058","1","1",,"1580"
"atpiw89wbkk847ng6drp5rlm","UHT","cp2n","UMMAHAT WATER AERODROME","p5jho0y0fyruuv2z2drbudt7","UMLUJ","+03:00","25.54195","36.75195","0","1",,"9091"
"atpuh444bgkfcy7dko6qvqkn","GYP","YGYM","Gympie Airport","th7awpsjwxfzilz8uqfnsfzp","Gympie","+10:00","-26.28277","152.702","0","1",,"2996"
"atqdrpq75as69vvt0pam2637","NMI","lswa","NAVI MUMBAI INTERNATIONAL","xdo9tyyo3hgyjsfqvypx9l9h","MUMBAI","+05:30","18.99389","73.07112","0","0",,"9257"
"atwe7o15w2ebkionh7c63j5i","MKB","FOOE","Mekambo Airport","iloqmj4gj46wrc3vqbp97w5o","Mekambo","+01:00","0.96667","13.95","0","0",,"5034"
"au3xiwdq3mfykmgxin808u5z","CTG","SKCG","Rafael Núñez International Airport","h3x6hgflfo1jg9gs8w9itbdy","Cartagena","-05:00","10.4425","-75.51305","4","1",,"6614"
"au6ol1uu9u5pnd2xkg3kd0no","CHQ","LGSA","Chania International Airport","guwzqsc38s7ed51ejpsjslzs","Chania","+03:00","35.53167","24.14973","2","1",,"1442"
"au9ffbywruqwv27va7df2ag3","GBU","HSKG","Khashm el Girba Airport","ludslg82bpmjh59emkj00hoh","Khashm el Girba","+02:00","14.925","35.87806","0","0",,"3905"
"auiqw2efpwjpocjlezxknqx7","TTM","dp13","Tablón de Tamará Airport","afxnr2vzaf9dpbd3l3k2pd0g","Tablon de Tamara","-05:00","5.71695","-72.1","0","0",,"7800"
"aumk9uy0qsd5pebw58gra59d","BYG","KBYG","Johnson County Airport","zfik8i2czxhj3l6pqsu8btw7","Buffalo","-06:00","44.35","-106.7","0","1",,"3573"
"auway0715n4zva3go354z70p","SZH","llmq","SHUOZHOU ZIRUN","ujq08nukpiafe6pz89m11z7i","SHUOZHOU","+08:00","39.2725","112.6903","0","1",,"9196"
"auyome9cfrh70508aejp4v4s","BST","OABT","Bost Airport","yw6ydwvy0r9ad1lwxmr2lv41","Lashkargāh","+04:30","31.56056","64.365","0","0",,"1033"
"av7cci2ylespajkwfxczo1tz","CBT","FNCT","Catumbela Airport","lcam0b4c5yaxr2czunow3u2m","Catumbela","+01:00","-12.45","13.48","1","1",,"1385"
"avc9adf5f3aegw9id4d9hjpg","TNZ","ZMTL","Tosontsengel Airport","jrfcm4o0yro95s76q8wn4jtz","Tosontsengel","+08:00","48.74","98.28","0","0",,"8168"
"avh2a2pxc3rzsbkivjjv5psz","KAA","FLKS","Kasama Airport","zhtfjww4uj99xyjnevfqy0ix","Kasama","+02:00","-10.22","31.13","0","1",,"3778"
"avn5rdgfhne4dcc55tqvdx44","PKT","YPKT","Port Keats Airport","ugwb8qdy88ws5f18ooo1gp7i","Port Keats","+09:30","-14.25","129.52921","0","0",,"6399"
"avn9jgyybw3qzbn95zaelmfl","SBY","KSBY","Salisbury-Ocean City-Wicomico Regional Airport","eiiaa6rllx7m8el0vob6xyo9","Salisbury","-04:00","38.34028","-75.51027","0","1",,"6979"
"avp33upoc1mvbkouwf515dyw","PKE","YPKS","Parkes Airport","mq14gcpzf180rr0l0h52em1m","Parkes","+10:00","-33.13138","148.2392","0","1",,"6130"
"avqo91opwa0zvaoq1dntkgk1","ERR","KERR","Errol Airport","v4ralsvxvegigkv76tu5cj96","Errol","-04:00","44.79278","-71.16444","0","1",,"2347"
"aw3lepli677t61cducap82sw","CXA","SVCD","Caicara del Orinoco Airport","ju1spukj75pvvsibo3cb16vd","Caicara de Orinoco","-04:00","7.62556","-66.16277","0","0",,"1221"
"aw5e3y5sligxj3r6ok6n3mb5","XCL","t77i","Cluff Lake Airport","gfgvdw7unhhv9wbc2djoordq","Cluff Lake","-06:00","58.39407","-109.5176","0","0",,"1632"
"aw6h082tdefbitfvzhw8wu9n","YNT","ZSYT","Yantai Penglai International Airport","kdh7t1iqxixrov2hq52cjagf","Yantai","+08:00","37.66","120.9786","3","1",,"8876"
"awdmj5rh179t39mvivr2puzv","BBT","FEFT","Berbérati Airport","ysnyuub5036ia450eytdm1e1","Berbérati","+01:00","4.22167","15.78639","0","0",,"839"
"awe9fpt5iz9f6zukd0lr9r54","SZW","EDOP","Schwerin Parchim International Airport","brdgjobe3t5t09fk8smgg0xw","Schwerin","+02:00","53.42973","11.78139","0","1",,"7217"
"awhb9ayby0veha3gu5rwsh6c","BBV","DIGN","Nero-Mer Airport","hqs7p1gww5zauhqhld48eeh2","Grand-Béréby","+00:00","4.68778","-7.07666","0","0",,"5604"
"awndeii8oqfrxrpkmzp431h9","UTO","PAIM","Indian Mountain LRRS Airport","czhextl0az6kivqwyvkfpzx8","Utopia Creek","-08:00","65.99334","-153.6964","0","1",,"3360"
"awpubvd68zrd9xru0uq3g2d0","PCR","SKPC","German Olano Airport","o21xlewmkhz1leb6y8q2bom4","Puerto Carreño","-05:00","6.18473","-67.49305","0","1",,"2733"
"awtxeo3kp864v5j5fpec8uzp","RRE","YMRE","Marree Airport","co99j01cmnewbikybutbk6q0","Marree","+09:30","-29.65","138.10001","0","0",,"4902"
"awu90gkitf6lmnm94kanjl10","MTO","KMTO","Coles County Memorial Airport","myg11ftj68to5qaedfiqx4op","Mattoon/Charleston","-05:00","39.48001","-88.28","0","1",,"1663"
"awzamei603dhkdcjvrwiwgr8","KUB","fhq8","KUALA BELAIT","cq7v7lszivugfgoa99xxjpev","KUALA BELAIT","+08:00","4.58362","114.2311","0","1",,"9137"
"axgkx9mckbryhczd377dn028","BTO","pet6","Botopasi Airport","om10kmvhhvzqbq3uxm5mvqt2","Botopasi","-03:00","4.21806","-55.44638","0","0",,"1036"
"axhljzscjuqs30zh34rrimiu","EMP","KEMP","Emporia Municipal Airport","akx4q28399nouju8rhb6jsyw","Emporia","-05:00","38.33001","-96.18","0","1",,"2308"
"axi0dompkye6ww45d5yalaxb","OBL","EBZR","Oostmalle Airfield Airport","o2gm3xe8kxiaqj13heq57v20","Zoersel","+02:00","51.27","4.75","0","1",,"5925"
"axrmc2rgf034sayqwcfy2bxj","KCQ","mpuf","Chignik Lake Airport","bs3w1nd1hn8eirlhg8m535i7","Chignik Lake","-08:00","56.25","-158.8","1","1",,"1522"
"axrubixg78u6o8jl4cvnee7e","MSM","FZCV","Masi-Manimba Airport","qvgpq8cj205t1h9qfzrmi1ip","Masi-Manimba","+01:00","-4.83305","17.85","0","0",,"4928"
"axsw1ubq6qzhlkg6okab2n0r","MXK","ergx","Mindik Airport","mr7zyptwit8yb47wrpn7l8c0","Mindik","+10:00","-6.21694","147.60001","0","0",,"5151"
"axtlm2kkwt0qkdvgzc8nvex4","KTD","RORK","Kitadaito Airport","g4cyqwa2skqlw05gbym6o416","Kitadaito","+09:00","25.94473","131.327","0","0",,"4003"
"axw5yrw2dojcnj1x8uov0oit","NLP","FANS","Nelspruit Airport","qk87ifg3j3tjt9poqn6kikeb","Nelspruit","+02:00","-25.47999","30.98","1","0",,"5594"
"axwxhwtq623n7vdr53haubnw","MYN","OYMB","Marib Airport","el1tpwi715o4c56a2wllyook","Marib","+03:00","15.475","45.32556","0","1",,"4869"
"ay1wkl6tj7upy4hjylseo81z","MTN","KMTN","Martin State Airport","usjuilm22m3c83acyeppcnqx","Baltimore","-04:00","39.32556","-76.41388","0","0",,"4917"
"ay27nis9kckxoz6tu6u806a3","XCO","YOLA","Colac Airport","cwt347agbqok2n7p2pnr0j08","Colac","+10:00","-38.33","143.60001","0","0",,"1657"
"ay8miy96ds9p2u4isbt3wr86","UGA","ZMBN","Bulgan Airport","t66n9ioyycm6v8gt30j8lmhk","Bulgan","+08:00","48.85501","103.4761","0","1",,"1157"
"ay9maamugb1em3nl7hshtwhp","MIC","KMIC","Crystal Airport","zoj2euy5sqezt423kw4tw6mi","St Paul/Minneapolis","-05:00","45.06","-93.35515","0","1",,"1822"
"ayd3sog0a1s72cttv85kwoig","ZPH","KZPH","Zephyrhills Municipal Airport","e2tbzbha78qgyz34l0p679qq","Zephyrhills","-04:00","28.23","-82.17","0","0",,"8988"
"aydbwwh0yszi3sgtdiqmrhbw","SET","x5b0","Santa Magalhaes","wh5w2aw73vzsv8uou8ykgbxb","Serra Talhada","-03:00","-8.06277","-38.325","0","1",,"7107"
"aykjf3s4k1emwpa9bwmab6gj","TLD","FBLV","Tuli Lodge Airport","bcfmtomg6oe508nkjnhonib4","Tuli Lodge","+02:00","-22.19138","29.12973","0","0",,"8256"
"ayo9707hf1cqfc1heioicor3","MTE","SNMA","Monte Alegre Airport","pbh4i3pobv630aiilq80qfxi","Monte Alegre","-03:00","-1.99583","-54.07416","0","1",,"5264"
"ayxtpx64ratssdxhzgk3mzra","CBX","YCDO","Condobolin Airport","u43qo6fcfijd7h1yopbpj7wz","Condobolin","+10:00","-33.06444","147.2092","0","0",,"1714"
"az4zudqqu4y8dhx7go6gnoer","KGH","AYJO","Yongai Airport","ikoz9nzvpja2z3kd267f668n","Yongai","+10:00","-8.58305","147.5","0","0",,"8929"
"az6h5g3kxijiy54wccjy908v","BRR","EGPR","Barra Airport","vd1cnb3g8kov2v0bxk7h273o","Barra","+01:00","57.02528","-7.44944","0","1",,"683"
"az8rvdr557kcr5aexb24hqmr","YTP","ip2e","Tofino Harbour Seaplane Base Airport","c6oqxygz985f8xwwt8lbnhpo","Tofino","-07:00","49.15528","-125.9103","0","0",,"8121"
"aza2md9omgqb74e28wgiwwp2","ODA","FEFW","Ouadda Airport","qooxf5hr5lhl720vun7fbjl2","Ouadda","+01:00","8","22.42","0","1",,"5998"
"azbk0f55kkau8fu29xjyz3jn","BCX","UWUB","Beloretsk Airport","do4k16krln8zx0poj5l3fsmu","Beloretsk","+05:00","53.93","58.33001","0","0",,"805"
"azfdv83y23b4rfb0z6a30pho","CDC","KCDC","Cedar City Regional Airport","g5wcej22k35vfupkw69c8wdf","Cedar City","-06:00","37.70084","-113.0989","0","1",,"1398"
"azj28mb7up2gosc63q49ozti","YQZ","CYQZ","Quesnel Airport","j8typ8j46985hz5t2jhmpz2h","Quesnel","-07:00","53.02612","-122.5103","0","1",,"6586"
"azoczfk3lzxd8vkrzhvpb0dz","HYA","KHYA","Barnstable Municipal Airport","rj3xvm20ej2e4yrhgnsrndhh","Hyannis","-04:00","41.66945","-70.28027","0","1",,"679"
"azr1q3qf1vpiocr5973h4kzk","PQI","KPQI","Northern Maine Regional Airport","iqrhucuy3vo54tkp5ghaek0m","Presque Isle","-04:00","46.68889","-68.04472","0","1",,"5740"
"azxxjs5wkczcf3uapinbvtzk","XRY","LEJR","Jerez Airport","wxect6lj3xyv4amxl4x7opwb","Jerez","+02:00","36.74473","-6.06","1","1",,"3521"
"b01fl4d0cvskg4qd91h1bp54","BJM","HBBA","Bujumbura International Airport","zb6ivr6wcxovp4q9jj471xnm","Bujumbura","+02:00","-3.32388","29.31862","1","1",,"1150"
"b04eayc6mw8wrtk3bnh1aii9","VAK","PAVA","Chevak Airport","lumbgdgpbqariz44n2z91txt","Chevak","-08:00","61.52","-165.60001","1","1",,"1501"
"b0b1lzkqcfdyo3tgqrgvhrbb","YTL","CYTL","Big Trout Lake Airport","tobz1ibb1dnexyeta3d3zg4y","Big Trout Lake","-05:00","53.81862","-89.89833","2","0",,"896"
"b0dgtvofrwtrei5cgq663rpa","NVR","ULNN","Novgorod Airport","nqmpsuitr2z220qqe7zdf69v","Novgorod","+03:00","58.49334","31.24167","0","0",,"5772"
"b0fqgukwtjcaf9cdcujkdwzv","IQM","ZWCM","Qiemo Airport","gx500tzis1bnl7tum45c3w6o","Qiemo","+08:00","38.14945","85.53278","0","1",,"6557"
"b0k2ruf4ri2k3wsn83kum5h6","APY","SNAI","Alto Parnaíba Airport","okq8128uu2g6i7h8660fo8d6","Alto Parnaiba","-03:00","-9.1","-45.97","0","1",,"226"
"b0k4etadw1egin0prakzuuqy","OTU","SKOT","Otu Airport","wchsmczsnlifakbb3bvkjvzn","Remedios","-05:00","7.01223","-74.71583","0","1",,"5997"
"b0kh5todlneqyggiazibp225","RUU","mjc5","Ruti Airport","hojpmj7e2lze2vhdc7z1rozg","Kawbenaberi","+10:00","-5.3","144.3","0","1",,"6913"
"b0mgz94uprrb31ogbyfawvmq","THB","FXTA","Thaba-Tseka Airport","eeb0r03lzhl2yyns1lhp1rvp","Thaba-Tseka","+02:00","-29.87","28.17","0","0",,"8029"
"b0qgnxwf1bpshkfju7lkh73s","PVS","UHMD","Provideniya Bay Airport","enppv60fg5j7tldbo6cdijkj","Provideniya","+12:00","64.37806","-173.2433","0","0",,"6484"
"b0s834mjpmqouj648pzq5bt8","SMU","PASP","Sheep Mountain Airport","m4i99llleuyecvffgm4qqsbz","Sheep Mountain","-08:00","61.81195","-147.5067","0","1",,"7329"
"b0u2pg15g5ljj460rpc3r4xd","OIC","KOIC","Lt. Warren Eaton Airport","yb6eqr8e2k293ys4mafbkjs8","Norwich","-04:00","42.56723","-75.52638","0","1",,"4595"
"b0uq5w8roo7cxce2bk38h1cp","RAL","KRAL","Riverside Municipal Airport","yrh64fpb7moy1ugt11d1kmw0","Riverside","-07:00","33.95167","-117.4458","0","1",,"6762"
"b0vs4kg0ersck3dupy643si6","WBC","bncm","Wapolu Airport","ubmcw6qei212dleqrdt8n78y","Wapolu","+10:00","-9.31694","150.39999","0","0",,"8602"
"b0zx5gwc13hwo2gf34ih2hu6","WOK","SVUQ","Wonken Airport","g1pbqq60pz6aem49hf2483zo","Wonken","-04:00","4.98306","-61.72888","0","1",,"8795"
"b12myozjy57s5umn4vw1m28o","BEC","KBEC","Beech Factory Airport","z71snz4632wlt1b09sc95rzh","Wichita","-05:00","37.69","-97.21","0","1",,"767"
"b17qaeamkde317i96s6ba1rh","CTH","KMQS","Chester County G. O. Carlson Airport","akjfnrbisrl7pnmfgf2wgc45","Coatesville","-04:00","39.97","-75.82","0","0",,"1497"
"b1a5n17kdbuepg3zwgq9kqk9","COH","VECO","Cooch Behar Airport","pwt8tfur44lz2ski0u7p03dc","Cooch Behar","+05:30","26.33056","89.46723","0","1",,"1723"
"b1b5e0ogdcku5utbf7ur2wkt","SZJ","MUSN","Siguanea Airport","d3gsddnjwb33rvjxz279t2dd","Isla de la Juventud","-04:00","21.63","-82.95","0","0",,"7399"
"b1btb5wrk8hmp6ci1gmhwt5v","ELI","PFEL","Elim Airport","mc4n0ulxzzegkj1l9rnga035","Elim","-08:00","64.62","-162.3","1","1",,"2250"
"b1pqhkebnr19ls7h55lhik3c","CQA","SWEK","Canarana Airport","sdzj5350byjza34zasl0lzct","Canarana","-04:00","-13.57","-52.26999","0","0",,"1272"
"b1rbz71dbb5xud8ijsn9z93x","MRH","mtc3","May River Airport","t5fj8zliyuq3hwyme8qzb2l8","May River","+10:00","-9.5","147.10001","0","0",,"4983"
"b1sdsm8x0ptvvtd5sp4aa7r9","YEI","LTBR","Yenişehir Airport","b9tr33drjuom1z34zcyikbu7","Bursa","+03:00","40.25528","29.5625","1","1",,"8903"
"b1sm6rq7upqt2aicah4hnome","PWR","lncc","Port Walter Seaplane Base Airport","cnvwctdu633o47r5wder3vn0","Port Walter","-08:00","56.38806","-134.6447","0","0",,"6432"
"b1tnoth54hnj68fveywfrabg","LWT","KLWT","Lewistown Municipal Airport","lygbkeijad2pf54uyhugw1sd","Lewistown","-06:00","47.05","-109.5","0","0",,"4434"
"b1yivbfra1v210fwrs97sheu","AIV","KAIV","George Downer Airport","p3oyf9a3pii3tunvgcknyfqn","Aliceville","-05:00","33.1","-88.2","0","1",,"2721"
"b256v9npr6mdug8qoapkxmxv","LST","YMLT","Launceston Airport","i030vzv7glijm05gkkzl0afw","Launceston","+10:00","-41.54527","147.2142","2","0",,"4339"
"b2go59pi9cnql1znt6tmbv5h","NOK","SWXV","Nova Xavantina Airport","rrxqgx98xk2sejs3vltd5gpi","Nova Xavantina","-04:00","-14.42","-52.91999","0","0",,"5771"
"b2izpraegmmrvky457m5uyrw","PDF","ji35","Prado Airport","fe704z41091u2uq1nhinoy7j","Prado","-03:00","-17.35","-39.22","0","0",,"6443"
"b2j24xs3ti1kgqnpcdwalvzs","ULG","ZMUL","Ölgii Airport","tu2ti0hddmk078auj71orwdl","Ölgii","+08:00","48.99389","89.92195","0","1",,"5888"
"b2jf7rc70gik59y6d7qqi8mn","MIG","ZUMY","Mianyang Nanjiao Airport","ucu5jg0y1i32n4zd1lx6u5vh","Mianyang","+08:00","31.42806","104.7411","1","1",,"5100"
"b2kqku1nrukjm009qelagi8q","OUD","GMFO","Angads Airport","kg4jp1iaxenk15ob4kph4rfv","Oujda","+01:00","34.78723","-1.92388","1","1",,"308"
"b2lgg6ozxnv0k2i088xbs8gq","VBV","NFVB","Vanuabalavu Airport","gv7klguq5cvoq3360h24bz35","Vanua Balavu","+12:00","-17.24472","-178.9592","0","1",,"8438"
"b2m0mf5vtkn6bq0njc34x8g0","LYP","OPFA","Faisalabad International Airport","nlya9fpsqpd7ee6flkhszucy","Faisalabad","+05:00","31.36501","72.99473","1","1",,"2405"
"b2pgxabngsj66uc7iioa2688","ONU","NFOL","Ono-i-Lau Airport","ckayk3lhzfo5fm8vzpif7yr8","Ono-i-Lau","+12:00","-20.65972","-178.7408","0","1",,"5917"
"b2q3mgaaemxk9q89w9lsfsnr","VND","FMSU","Vangaindrano Airport","f1qw4i7trgv0hxu2mftpad64","Vangaindrano","+03:00","-23.34944","47.5825","0","1",,"8433"
"b2tanr50arxat8xw3z498a17","PLK","KPLK","M. Graham Clark Downtown Airport","nvb4b4x87wh1x4qt5frtwpka","Branson","-05:00","36.62334","-93.22638","0","0",,"5091"
"b31g9o5bbx2yv1tph0agv12v","XJD","OTBH","Al Udeid Air Base","i8h9t971naof9necx0ae4hze","Al Udeid","+03:00","25.12","51.32","0","0",,"230"
"b35584d2ysq04bve842yqxye","ABN","SMBN","Albina Airport","syvnc8y93y5p8i0iedlok9hw","Albina","-03:00","5.51278","-54.05","0","1",,"148"
"b36ecy3b0bcn6f626ysqyq9p","PWM","KPWM","Portland International Jetport Airport","rdei6vr7jrpsftu0msmzh61j","Portland","-04:00","43.64723","-70.31","1","1",,"6403"
"b3ae8kcdrbsw2ue1unjehm00","CTM","MMCM","Chetumal International Airport","i0vykzlr5qrghmj0tllnpla1","Chetumal","-05:00","18.50473","-88.32694","0","1",,"1499"
"b3bau9ece5sdliho7q9eky23","AZR","DAUA","Touat Cheikh Sidi Mohamed Belkebir Airport","epv9fx5ceouvw3xo6g9ubsku","Adrar","+01:00","27.8375","-0.18638","1","1",,"8172"
"b3ceejordgmo3k6plu2k2p5b","NIM","DRRN","Diori Hamani International Airport","i2fp8p5rf8bksm00087d96bn","Niamey","+01:00","13.48167","2.18362","2","1",,"2032"
"b3egvz1cnz4nxgsww7q5qhp8","CCW","YCWL","Cowell Airport","irz0zk76eqkvnijct0ok9z4a","Cowell","+09:30","-33.66999","136.89999","0","0",,"1789"
"b3hbjswdhvxglbqzjh4a721o","CHD","k6ip","MUCUGE","ttveqbz763ghqha6zrjlgu7d","MUCUGE","-03:00","-13.03194","-41.44555","0","0",,"9110"
"b3jeyunewru1bo2082d20ixv","BBN","WBGZ","Bario Airport","rsy9ak2hm8d2kixm3ifdtpc5","Bario","+08:00","3.73389","115.4789","1","1",,"672"
"b3lnbnk2t1bsxl7r7mfe0k2y","YMA","CYMA","Mayo Airport","lqtdv8v2pvwpe527pojepez0","Mayo","-07:00","63.61667","-135.8667","0","1",,"4980"
"b3mb9lxn4j07zccgkw6xw36f","WUH","ZHHH","Wuhan Tianhe International Airport","c6jrk2y4sh8816odb9uwl5ed","Wuhan","+08:00","30.78389","114.2081","10","1",,"8816"
"b3n6mpd9g5i4dp634xxisqxb","YYI","p1zv","Rivers Airport","ftupybmgw6w9mr06puilp28s","Rivers","-05:00","50.03","-100.2","0","0",,"6761"
"b3srqbbkoau1tg7xbodfuxyi","DEF","OIAD","Dezful Airport","a4f4p89q7gya55i4v82qw61f","Dezful","+03:30","32.43528","48.39695","0","1",,"1994"
"b3vs5w0978rjboxgoigskus7","OME","PAOM","Nome Airport","djcxvt12xd5lnlkrx4rwxqvm","Nome","-08:00","64.51223","-165.4453","7","1",,"5704"
"b3w29uqqxsh2mc28zj3c3u7o","AHD","qvzp","Ardmore Downtown Executive Airport","k9sl6pwaerkur5dpqvftlp2u","Ardmore","-05:00","34.15056","-97.12111","0","0",,"408"
"b40jjgv4yvpnddy41vzryjmh","BSF","PHSF","Bradshaw Army Airfield","vz8jqsqfhl7vqdpb9mx9u537","Camp Pohakuloa","-10:00","19.76","-155.5536","0","0",,"1071"
"b459uacr6o6yug5bscn8v12k","VIS","KVIS","Visalia Municipal Airport","lmt8i02aax03y7gywjszn27a","Visalia","-07:00","36.31862","-119.3936","0","1",,"8522"
"b4b7g5c3o6j1vu3dm3y5uz9p","LPL","EGGP","Liverpool John Lennon Airport","ekhwenki3y3x3y9jqd23ttwn","Liverpool","+01:00","53.33362","-2.84972","3","1",,"4501"
"b4duzgkbs72mnn8589ouhfqd","YAS","NFSW","Yasawa Island Airport","qd2rb3m4vivcve3wq2vuy307","Yasawa Island","+12:00","-16.75916","177.54559","0","1",,"8884"
"b4gco5b46rxiwxbax1rcsmxz","JEE","MTJE","Jérémie Airport","iori73dwrfm4vrun1sl47pxr","Jeremie","-04:00","18.66306","-74.17","0","1",,"3520"
"b4rpih10rbx0nhjnz7lto30c","MFS","SKMF","Miraflores Airport","xfycwvwgey98795jqnjlr4pd","Miraflores","-05:00","1.03306","-72.13","0","0",,"5175"
"b4w1wix5rts1hh48pnscj9xq","UDE","EHVK","Volkel Air Base","smf42fcxwm3qhr1wsoxwxyj6","Uden","+02:00","51.65","5.7","0","1",,"8539"
"b4w9fmv7mscs6dr7jpnpzfy6","MVS","SNMU","Mucuri Airport","z5n2k9lbmhqrz58wjuzubxcu","Mucuri","-03:00","-18.08","-39.57","0","0",,"5393"
"b50uo0fqc9zd50n65l4gftmw","TDK","UAAT","Taldykorgan Airport","r49ajhj2kktfc2fnzdd08iie","Taldykorgan","+05:00","45.12612","78.44695","0","1",,"7851"
"b51q7oitm4wxftxa7690gmif","SDS","RJSD","Sado Airport","wmhjcpi5h6sfiioedy18ofl2","Sado","+09:00","38.06084","138.4117","0","0",,"6934"
"b5aruvg8eqvzfv1g2wk5o2zs","MFW","utji","Magaruque Airport","aadh22m69q27e8b8bd03uoka","Magaruque Island","+02:00","-21.96777","35.42417","0","0",,"4694"
"b5f2qgmj5368c5gpli2ltx3s","GFE","wyb3","Grenfell Airport","ze3rtdqq9tms21kczsm4ric2","Grenfell","+10:00","-33.9","148.2","0","0",,"2916"
"b5g3ygjctup240jtp8701541","TLN","LFTH","Toulon-Hyères Airport","ea9qtnje7kk9pmpdt97zsneu","Toulon","+02:00","43.09723","6.14612","1","1",,"8175"
"b5lv6p7tgida4ajt7rvvftjn","YFX","CCK4","St. Lewis","a486gv4m1gobw0r8i9ht3s6p","St. Lewis","-02:30","52.37278","-55.67388","1","0",,"7655"
"b5n5fwyb0v0urxhi2uuiznjm","AZI","OMAD","Bateen Airport","vdwdixo5iwep5vnn8qdwcrkp","Abu Dhabi","+04:00","24.42834","54.45806","0","1",,"719"
"b5uxsx6lyqpykgfjoyd66i4d","IAR","UUDL","Tunoshna Airport","o9k6hoxj6e7tjm64rnfoeuxy","Yaroslavl","+03:00","57.56084","40.1575","0","1",,"8274"
"b5uzfj1eamgmmy6oj2gbnivi","CIX","SPHI","Chiclayo International Airport","xmjg1kaiauawo3437lu7ehxx","Chiclayo","-05:00","-6.78638","-79.82777","1","1",,"1516"
"b5wl7pcz4b7wtttlxr6nulj1","CQF","LFAC","Calais-Dunkerque Airport","gkqrrlt9eymra5yyr0b99zpq","Dunkerque/Calais","+02:00","50.96056","1.95584","0","0",,"1229"
"b5xh8s41mye7qbj49yhbaxst","VAT","FMMY","Vatomandry Airport","lcjb80kcj189xccc9lbo3kmh","Vatomandry","+03:00","-19.27999","48.83001","0","1",,"8445"
"b5y0dqdepd8arezk9daqffr8","CLH","YCAH","Coolah Airport","htq2fv7cbvg1lbklgypcmr6h","Coolah","+10:00","-31.83","149.7","0","0",,"1726"
"b649sgmep8pidv6dzxf3ywog","ASG","NZAS","Ashburton Aerodrome","lyyficvgl8c3dbxbbuz988cw","Ashburton","+12:00","-43.90333","171.797","0","1",,"458"
"b64x61jewa66lyk78unqb6yy","HDB","gypj","Heidelberg Airport","f04b1ciod70hh7153svysxe6","Heidelberg","+02:00","49.39362","8.65556","0","0",,"3115"
"b67fq0ic1trtyrpju32jtl2z","ACP","OITM","Sahand Airport","tfmk7lvd45jhbtucnufaoe65","Maragheh","+03:30","37.34806","46.12778","0","0",,"6941"
"b6bhlg0bho2s4fc2e4q22p8c","AYN","ZHAY","Anyang Airport","f6wxfujf3svg3yrkxz4uq150","Anyang","+08:00","36.13389","114.3439","0","1",,"363"
"b6d5jausnufj97tkqe5z82yh","SNL","KSNL","Shawnee Regional Airport","m8f5j5y9w9rfmezy005u9l5r","Shawnee","-05:00","35.35667","-96.94055","0","0",,"7324"
"b6f7ar0rx87hnstux2ti2vng","CJF","YCWA","Coondewanna Airport","zesgvdyouxzlchlphtmcwb21","Coondewanna","+08:00","-22.96666","118.8142","0","0",,"1732"
"b6lgma3v2wtvyqm2hm156xvx","HJR","VAKJ","Khajuraho Airport","pgrz5wmc4ditoj9i7lcvwvrv","Khajuraho","+05:30","24.81723","79.91862","1","1",,"3896"
"b6lml3mh4w62pnoauzd76ym3","TRZ","VOTR","Tiruchirappalli International Airport","u01hchnqduvwr5viptiaty1n","Tiruchirappalli","+05:30","10.76528","78.70973","1","1",,"8105"
"b6s8xudrrgisb23bchzfudc7","KKZ","VDKK","Koh Kong Airport","ynyvgws54z569fueupt0fgsr","Koh Kong","+07:00","11.62001","103","0","0",,"4034"
"b6wiussf4iy0zlgu90w8evgl","SQA","KIZA","Santa Ynez Airport","puld1jdwe5ipbqgtm6g1k2wj","Santa Ynez","-07:00","34.62","-120.1","0","0",,"7130"
"b6zxha4hj91tzblaw10i4s6c","LFP","YLFD","Lakefield Airport","ejyjc6sqxdkhyuk7b0ry6rlu","Lakefield","+10:00","-14.92","144.3","0","0",,"4239"
"b72l40sdehz7tb39y0xrgyrm","LRM","MDLR","La Romana International Airport","f0q2sgtyimx0uyuv9fxtc1zz","La Romana","-04:00","18.45084","-68.91194","1","1",,"4309"
"b78x21vvfggcc17mo4ga6ay7","MLF","KMLF","Milford Municipal Airport","zfm56pv9e4u5glxfpbejt2kn","Milford","-06:00","38.42667","-113.0125","0","0",,"5132"
"b79o29g2dbgx1hjoj0a63gay","WRO","EPWR","Wrocław Copernicus Airport","s1ppqkoief3sa4seww3tkchw","Wrocław","+02:00","51.10278","16.88584","2","1",,"8812"
"b7c0dbdob7q5ww7lsgwnhm0b","BLK","EGNH","Blackpool Airport","w8tbg259lcd9xk64fr2fh3i3","Blackpool","+01:00","53.77167","-3.02861","0","0",,"944"
"b7hi291b21lin2cfkmwi2pbt","SJO","MROC","Juan Santamaria International Airport","zna9c0xas67bfvki7fc5cbf4","San Jose","-06:00","9.99389","-84.20888","7","1",,"3613"
"b7ioj7kfjxjslozt2sheua8k","ZUM","CZUM","Churchill Falls Airport","gpn2jrnhvrsp8tfx5b0dnkeb","Churchill Falls","-03:00","53.56195","-64.10638","1","0",,"1585"
"b7offhb4bkiow8mon6l7t7fs","GOX","ebgp","MOPA AIRPORT","kw5t86m78m2dlr0rq8wg6hpf","GOA","+05:30","15.73139","73.86778","0","1",,"9053"
"b7w9fgnlzvcd45w3squfxute","GLE","KGLE","Gainesville Municipal Airport","gndky7hvhf1wj2f1dsm7ozts","Gainesville","-05:00","33.62","-97.13","0","1",,"2614"
"b82grpyrxn6qgya1ci9s7sza","JSM","SAWS","Jose De San Martin Airport","e0xnzd45pfcnwnughcm4jo7y","Jose de San Martin","-03:00","-44.04861","-70.45888","0","0",,"3593"
"b85rougu6d34tfkd6rq5ki1d","RAE","OERR","Arar Domestic Airport","wt5ryp8o2htt6b00p5xztefr","Arar","+03:00","30.90667","41.13834","0","1",,"394"
"b86qhg54e82wue37myl7jiyg","BOE","FCOB","Boundji Airport","nay0ti9gu3rouwwys6egisak","Boundji","+01:00","-1.03305","15.38","0","1",,"1049"
"b8bj49vqxex04tazyv0yixfj","KSZ","ULKK","Kotlas Airport","je3xwtpfyqo5fth3gfimx982","Kotlas","+03:00","61.23639","46.69862","0","1",,"4096"
"b8c4cp48cqaavfr161or5v9c","IOW","KIOW","Iowa City Municipal Airport","r0tu2go42mu64l0lvpdr9vzr","Iowa City","-05:00","41.67","-91.53","0","1",,"3399"
"b8cvx816a0bkw76wgqu0fjye","LGY","rokr","Lagunillas Airport","v8ugk4fkavtomsjdoc1ejdau","Lagunillas","-04:00","8.51695","-71.4","0","0",,"4223"
"b8czhptlxkt5for1ecx2v8r3","PMK","YPAM","Palm Island Airport","y2kyrxydewniyo6svu8oxv5x","Palm Island","+10:00","-18.75527","146.5811","0","0",,"6072"
"b8ffp8248einc6nws08xinmm","TLQ","ZWTP","Turpan Jiaohe Airport","iksu9480037xlhjkeu4zr6pj","Turpan","+08:00","43.03028","89.09723","0","1",,"8289"
"b8fyglguvg6vbf9lou1f5d8z","MTW","KMTW","Manitowoc County Airport","j98ue5920afq9nj8vcdq34ja","Manitowoc","-05:00","44.12","-87.67","0","1",,"4809"
"b8uqq564dxjn8oalpsv4hgu4","HAZ","it2f","Hatzfeldhaven Airport","jwg14chwb52guogphyjdm5zu","Hatzfeldthaven","+10:00","-4.33305","145.2","0","1",,"3085"
"b8vl8xpph19p0vkqlrhc2u6x","KRK","EPKK","Kraków John Paul II International Airport","k0mk04fntw9jkfoh7vq7k3qc","Kraków","+02:00","50.07612","19.79167","3","1",,"4109"
"b8xoj50g31gvzk8sg8wg18a1","JUM","VNJL","Jumla Airport","hcs71pz89d2y9pcx3tfv3516","Jumla","+05:45","29.27445","82.19278","0","1",,"3623"
"b91tfunlqash1spamfo8w0vi","RZH","ub47","Quartz Hill Airport","ruqr6dl8ltog0mhblz15hgmq","Preobrazheniye","+10:00","42.91973","133.9039","0","1",,"6574"
"b92a95c9nyamfxjohfogw7q5","SUQ","SESC","Sucua Airport","u6swcbbtouyg24igrkn4o0bv","Sucua","-05:00","-2.46694","-78.18","0","1",,"7709"
"b92swprj83q6k0i7gcvux3xr","STI","MDST","Cibao International Airport","woel583g4zxn1a91cxiy7g9c","Santiago","-04:00","19.40612","-70.60472","1","1",,"1589"
"b94gw8mcnnb3aai1pi6fw0p3","WSZ","NZWS","Westport Airport","givfh7jh3d2au7kj6tcnza8d","Westport","+12:00","-41.73694","171.5795","0","1",,"8693"
"b9ehnp3uwwbnor1irnfu06ha","PYO","SEPT","Putumayo Airport","mywqvvbxs7oyunfn14ubkblg","Putumayo","-05:00","0.06667","-75.86999","0","1",,"6541"
"b9fckzk3zc3rmcauweed6y2r","MEK","GMFM","Bassatine Airport","y0eibftayemj1u2ggb1xonl9","Meknes","+01:00","33.87917","-5.515","0","1",,"711"
"b9j02gzn4vx34lo6wcp2fpg9","IRC","PACR","Circle City Airport","i78baym4er898zxe8mls81u4","Circle","-08:00","65.82806","-144.0761","1","1",,"1596"
"b9nh0b2xinsk60ui29jpam9z","ACT","KACT","Waco Regional Airport","xssfnw8u0arzq0chmjoo58ak","Waco","-05:00","31.60889","-97.22527","0","1",,"8556"
"b9syqj6sspijrhabd4xjzwfn","BZU","FZKJ","Buta Zega Airport","x49sgpjxi8kyba8109b0oa6b","Buta","+02:00","2.81834","24.79362","0","0",,"1193"
"b9tgouqq48x7cos5sa8hrimp","TRG","NZTG","Tauranga Airport","hroehyiuaj1pzruj8saqv7ew","Tauranga","+12:00","-37.67194","176.19611","1","1",,"7945"
"b9uxcdlsrmbnvd4o04bdn9kc","KHV","UHHH","Khabarovsk-Novy Airport","xpe0gnkc65z8x87mdgbmvt4u","Khabarovsk","+10:00","48.52806","135.18829","4","1",,"3895"
"b9vg9p55xmri2k04lt977q61","AVP","KAVP","Wilkes-Barre/Scranton International Airport","ldtdfk60fy7t0k2pue2j7a96","Wilkes-Barre/Scranton","-04:00","41.33862","-75.72361","1","1",,"8738"
"ba02lmqhe4d64ivvad3r2sxr","EEN","KEEN","Dillant-Hopkins Airport","vg709dbt5taho0el6e7ofc7b","Keene","-04:00","42.89834","-72.27","0","1",,"2019"
"ba03n5jfaxsmx8xjyymxj7ue","IAM","DAUZ","In Aménas Airport","bs01xtws2ajmkdy9dzaeo5yr","In Amenas","+01:00","28.05167","9.64278","0","1",,"3350"
"ba2dp7v0zucztc52ekqap3o5","WSK","zr2c","Chongqing Wushan Airport","i6tmu1fd7lfcihi4w16whqvc","Wushan","+08:00","31.06417","109.7014","0","1",,"1570"
"ba3n31igtp0u27wxcooddq3l","BNQ","RPUZ","Baganga Airport","rgqmtdaqr8ooaex9dpx63nam","Baganga","+08:00","7.61334","126.5681","0","0",,"555"
"ba44vxor263ksyay2g5kt5zz","JAI","VIJP","Jaipur International Airport","llwfr7hls8k7zkfryz8doyr2","Jaipur","+05:30","26.82417","75.81223","2","1",,"3485"
"ba5uv4024rc2czsmjtcsawva","GIF","KGIF","Winter Haven's Gilbert Airport","ybjbxvqgqu560jzy37mh8mu8","Winter Haven","-04:00","28.07","-81.75","0","1",,"8774"
"ba8cfxy32bfuipuec3uux161","STK","KSTK","Sterling Municipal Airport","jmplvqqvna2dio3rn7psyad3","Sterling","-06:00","40.62","-103.3","0","0",,"7636"
"babhamiv7qs2807cygw07653","RAK","GMMX","Marrakesh Menara Airport","rikbzvizrm1udrja7eqdcneg","Marrakech","+01:00","31.60695","-8.03638","3","1",,"4901"
"badsc774yqzpp2gklpmma9iz","CCV","NVSF","Craig Cove Airport","jniqjqqx3un2q8g6re3m9y6v","Craig Cove","+11:00","-16.265","167.9239","1","1",,"1797"
"bae8zz8mozywuh635gjn5apa","VXE","GVSV","Sao Vicente Cesaria Evora Airport","tbgykp559mumer7ngbuos2np","São Vicente","-01:00","16.83334","-25.05555","1","1",,"7157"
"bauwd5rwzu1y103gsmlgmxxv","ALD","SPAR","Alerta Airport","h539ci8c0vd5pktbja5fdpf3","Alerta","-05:00","-11.65027","-69.22944","0","1",,"162"
"bb091hi6844k8mo68ltyt4ms","ATE","j8n2","Antlers Municipal Airport","h5bmv1o4cvruwj0lo0z3q4ad","Antlers","-05:00","34.23001","-95.61999","0","1",,"345"
"bb0cv6zur419vev3te71skkr","MCN","KMCN","Middle Georgia Regional Airport","ybk7v4c0mblvq1jv0quyemth","Macon","-04:00","32.69612","-83.64194","0","1",,"5109"
"bb229wl0j44a89uyvfngex4y","MED","OEMA","Prince Mohammad Bin Abdulaziz Airport","thait1rw3wu0m5l77rkqmih4","Medina","+03:00","24.54528","39.70084","7","1",,"6466"
"bb44463qgpq9jhbt143t9in1","MJY","cx5i","MOTYGINO AIRPORT","d5v83bpy9uf7cxu7rco7zd7l","MOTYGINO","+07:00","58.18195","94.73917","0","0",,"9078"
"bb9ylmz6f2y5orvbdruzhgqu","NUQ","KNUQ","Moffett Federal Airfield","sk5kxae7d3ee1s0x3c0ey7g2","Mountain View","-07:00","37.41362","-122.0542","0","1",,"5218"
"bbchmvu7pbj91mjszg8lzoh0","WPA","SCAS","Puerto Aisén Airport","suovgufb0hrrjaxcwqabiybi","Puerto Aisen","-04:00","-45.39916","-72.67027","0","0",,"6495"
"bbec9qiy4vj072umjtha8nkr","MXU","YMWA","Mullewa Airport","i3yorxuk0syynhj2alici8z6","Mullewa","+08:00","-28.55","115.5","0","0",,"5413"
"bbel67dazyjmtiwwmhsn8wyd","AUD","YAGD","Augustus Downs Airport","ixcmqqe03wwqh11pmvg7g64g","Augustus Downs","+10:00","-18.67","139.89999","0","1",,"509"
"bbgv1g1op9bg52tlfjco8zf1","YFR","CYFR","Fort Resolution Airport","inclldbpgu2iy0405oe3chfi","Fort Resolution","-06:00","61.18084","-113.6897","0","0",,"2522"
"bbha5w5g314hoaoczsteanna","SKN","ENSK","Stokmarknes Skagen Airport","evqx60vwv16gk7v4ncmsdcok","Stokmarknes","+02:00","68.58","15.02001","1","1",,"7672"
"bbhat9t3zfvnkvq3f2mbq8zg","OMS","UNOO","Omsk Tsentralny Airport","oizlbyzp68a4ixyxormrpuy1","Omsk","+06:00","54.96695","73.31056","1","1",,"5908"
"bblk6eg2yoazybjig83lvn3x","PPR","WIDE","Pasir Pangaraan Airport","fhq0wl5co0lnjfet7ipprc47","Pasir Pangarayan","+07:00","0.83334","100.4","0","0",,"6146"
"bbo97qvwz37aifnj0ulft4rf","JPY","lklv","PARATY","x8e0cu6uugu7i9nohmst010g","PARATY","-03:00","-23.22333","-44.72666","0","0",,"9134"
"bbowai9q1pe5t0w6oesh6ryl","XCA","rcsv","FICTITIOUS PT","kfinikzt0gmkow8atue7e4aw","FICTITIOUS PT","+00:00","45.31667","-65.88333","0","1",,"9236"
"bbqeqb1yo82ufdud4sr0emd7","DJM","FCBD","Djambala Airport","qe21zs7329p9918csqz55fku","Djambala","+01:00","-2.53333","14.76667","0","0",,"2044"
"bbqmrbnx0qcscc4jrteqxbxq","STL","KSTL","St. Louis Lambert International Airport","yf5yecex3h8eg8k1t07j3mwp","St. Louis","-05:00","38.74334","-90.36555","11","1",,"7657"
"bbr228ziejgkhp6wv9ggpqu9","GYE","SEGU","José Joaquín de Olmedo International Airport","n8nsn5k6agu0kffqnvl0ibau","Guayaquil","-05:00","-2.15749","-79.88361","5","1",,"3595"
"bbwvluj7uud9o2yrx1zf5tkl","RAX","azlf","Oram Airport","bsejwb9h3amrdeeweeqh0ro7","Oram","+10:00","-9.66694","148","0","1",,"5932"
"bbxx5g9gvak23l5d56dpdghe","OCH","KOCH","A.L. Mangham Jr. Regional Airport","nukpni960xgzs65vbfhf6bal","Nacogdoches","-05:00","31.57778","-94.70666","0","1",,"198"
"bc0d6oiy6q26458m2920bbcu","RUA","HUAR","Arua Airport","nsjzm0c6oy3j25u6xt12jrs4","Arua","+03:00","3.05","30.9","0","1",,"443"
"bc5gt0nqnxmny2cj1vz8hxm2","AHL","SYAH","Aishalton Airport","alcowhljy80b9rffwa3oha90","Aishalton","-04:00","2.48306","-59.32","0","1",,"99"
"bcccbrrrwgy6cty3ucyd1k05","HIP","YHDY","Headingly Airport","jzp8q176gxpf2z1ow28gkeqt","Headingly","+10:00","-21.32111","138.2961","0","1",,"3105"
"bcies28656g1f9gu9g3o7q3h","TGA","WSAT","Tengah Air Base","oy78cvsnccl184rbzv8zqq63","Singapore","+08:00","1.38556","103.7083","0","0",,"7982"
"bclkj5w64h8do7hutudirmxu","KMV","VYKL","Kalaymyo Airport","l8mbmt4oggjy6q8mg90ubd9k","Kalemyo","+06:30","23.18","94.05","0","1",,"3677"
"bctkkwqt6jq3oss9m28gjx6j","OER","ESNO","Örnsköldsvik Airport","n0s0nqq22lbplfmgp5uuiclf","Örnsköldsvik","+02:00","63.40834","18.99001","0","1",,"5964"
"bcuwzoifeeokxg36phrhxr0f","GGD","YGDS","Gregory Downs Airport","ja81nhjjaz8n3jqa22d6qbfg","Gregory Downs","+10:00","-18.7","139.3","0","0",,"2914"
"bd2sadxw4f9p9lsgo5yqcnuc","SWE","e4vv","Siwea Airport","xxdakao77ixtfo93seqhjh0t","Siwea","+10:00","-6.28305","147.60001","0","1",,"7462"
"bd3xivcs0vifo0c3yxudjd7p","KCO","LTBQ","Cengiz Topel Airport","hwrs2y8kfdfpy6wm0z48aq5z","Kocaeli","+03:00","40.735","30.08334","0","0",,"1400"
"bd5e6tdmmgje4otto20xs9kl","TBL","YTAB","Tableland Homestead Airport","inws15grby4sqfmrck0gqbg8","Tablelands","+08:00","-17.29611","126.9131","0","0",,"7799"
"bd5yahnik61r3jl0a0qusy1g","FBK","PAFB","Ladd Army Airfield","gxjncsk8vss0mshv21o87go5","Fairbanks","-08:00","64.83167","-147.6161","0","0",,"4197"
"bdcv7gy8aolz83japtxj2icj","DDG","ZYDD","Dandong Langtou Airport","nlwnefpchk0wo6mgpsgv3ay1","Dandong","+08:00","40.02473","124.2861","0","1",,"1882"
"bdgb4pa96ev8ksbavurxwxic","LLC","RPLH","Cagayan North International Airport","sd0icc40xppam13esezpezxm","Lal-lo","+08:00","18.18112","121.745","0","0",,"1217"
"bdi3roqcit74k8j8zw2c9m9z","BJH","VNBG","Bajhang Airport","yg1lkz58i2tf6vxeitnnu32t","Bajhang","+05:45","29.55","81.25","0","0",,"587"
"bdirckofzzv97a0ts2vfdz2o","ENC","LFSN","Nancy-Essey Airport","b0w9t9buuqu914ezr8mqn46i","Nancy/Metz","+02:00","48.69195","6.23056","0","0",,"5509"
"bdyp4ynj9bkc1y63kb1xs44h","WMB","YWBL","Warrnambool Airport","cpd0y1v0ve9exwioa008r8m6","Warrnambool","+10:00","-38.29527","142.44701","1","0",,"8614"
"be30ge7x9164r97dd4jdpgsv","YRV","CYRV","Revelstoke Airport","k6a8f7ej89yhjj3tj5rpp6gt","Revelstoke","-07:00","50.96667","-118.1833","0","0",,"6715"
"beeji0c9ihgmyo16dtbqqlm8","HVK","BIHK","Hólmavík Airport","mzr9m4z4112skguizloamft5","Hólmavík","+00:00","65.70473","-21.69638","0","0",,"3195"
"beezukgg92blmd2hi6ffug8c","TZN","MYAK","South Andros Airport","kww9ocmk38fcbzup0wwyqre1","South Andros","-04:00","24.1575","-77.58361","0","1",,"7547"
"bel5go1yu1fc6xnf48ke23ns","AEB","ZGBS","Baise Bama Airport","ibyv0ckw7f5mizc7et4qr1ff","Baise","+08:00","23.71973","106.9633","0","1",,"584"
"benreqxibnvxv8deomom4vm0","ACD","SKAD","Alcides Fernández Airport","azzojthhirz9277yprhkgz45","Acandí","-05:00","8.51695","-77.3","0","0",,"152"
"bf7obro9bfyqidsb10re90f5","LBX","RPLU","Lubang Airport","uj1h2wffugfrlyn187rgrsaj","Lubang","+08:00","13.85389","120.102","0","0",,"4600"
"bfaxkcx18pm1crtxybqiubtk","BVL","qvzf","Baures Airport","s92ln8wgimv7h2e1vimi59y6","Baures","-04:00","-13.58","-63.62","0","0",,"741"
"bfc1pwhyjdrfodo3ry9a50x5","OGE","ptkf","Ogeranang Airport","gct5ph7j3ohmnr1dwo2irs9k","Ogeramnang","+10:00","-6.43305","147.3","0","1",,"5853"
"bfcoc3zra1qnuqpthl541m1y","YOC","CYOC","Old Crow Airport","q97b0bdm5iim2x7bbfo36znb","Old Crow","-07:00","67.57056","-139.8392","1","1",,"5883"
"bfff1hovsu8rgnn9x5h37t20","WBW","KWBW","Wilkes-Barre Wyoming Valley Airport","ldtdfk60fy7t0k2pue2j7a96","Wilkes-Barre","-04:00","41.29723","-75.85277","0","0",,"8739"
"bfgg8535xw41q8py2vtcwoj9","TCU","FATN","Thaba Nchu Airport","mmbmf507efn67te48vi9dea5","Thaba Nchu","+02:00","-29.27999","26.87","0","0",,"8028"
"bfgzs22o2215gr8iopb4q7ss","HPA","NFTL","Lifuka Island Airport","qpwkm8siqsj0i4xsnk0xi6wz","Lifuka","+13:00","-19.7775","-174.34081","0","1",,"4455"
"bfh5yle1pyb3371gebhmk0si","TVU","NFNM","Matei Airport","q4wqgj8vcoqhy8946asrjfrm","Matei","+12:00","-16.69083","-179.87691","0","1",,"4949"
"bfkahbr4x4phwqvwyoublrfd","HZH","ZUNP","Liping Airport","jt7zo25wcah642my9y1ieid4","Liping","+08:00","26.32","109.1533","0","0",,"4489"
"bfm6rrzw7szc0u73by8uxczb","SXI","OIBS","Sirri Island Airport","fb66d9rfas49bmylxs9vlphb","Sirri Island","+03:30","25.90889","54.53945","0","0",,"7448"
"bfprf97peqaf7foirdlk4t6o","YRB","CYRB","Resolute Bay Airport","g5tvcmrrvu75olon1dutu57s","Resolute","-05:00","74.71695","-94.96944","1","1",,"6712"
"bfrxo20ggxat748rfnfl3k8r","CVB","AYCB","Chungribu Airport","rv4a939em749ml1yh9tczj0s","Chungrebu","+10:00","-4.8","144.7","0","0",,"1583"
"bfuqjd98qr86caksqdm3ra39","GDQ","HAGN","Gondar Airport","y5vzi1ngidqp5at0am8p2ifs","Gondar","+03:00","12.52001","37.43417","1","1",,"2813"
"bfyxnkejgob4q2htk29embh7","OVD","LEAS","Asturias Airport","tr7vz0vt5lmejnpk25v1ld6a","Asturias","+02:00","43.56362","-6.03472","1","1",,"472"
"bfzev6qp92ylrgi96ktcgaxx","CWR","YCWI","Cowarie Airport","zwatihx2b828iapup6p46ya9","Cowarie","+09:30","-27.72","138.3","0","1",,"1788"
"bfzfsr4dgjgmdlnnfz0su16h","XPK","CZFG","Pukatawagan Airport","v5jr94grd2fp5jpfa19hl4mc","Pukatawagan","-05:00","55.8","-101.4","0","0",,"6519"
"bg05i6gox4pezgx4u391f0ej","RFG","KRFG","Rooke Field","lmid64rwypex7fnmyvp8j0v2","Refugio","-05:00","28.29056","-97.325","0","0",,"6825"
"bg31wqjmfkrl4ffczz2b6dog","CND","LRCK","Mihail Kogălniceanu International Airport","xukjdcs1h534xcx7dm2yuexx","Constanța","+03:00","44.36223","28.48834","0","1",,"5123"
"bg6ikqq7cdu2wt6ll3l0gjc6","OTC","FTTL","Bol-Bérim Airport","p60x13dvopl2fma47vyjw1sg","Bol","+01:00","13.43","14.73","0","0",,"994"
"bg7voxrxnvvwjz6orlsc53ly","LEI","LEAM","Almería Airport","d8qv9anane39z4t39m7f527y","Almería","+02:00","36.84389","-2.37","1","1",,"201"
"bgaioglqt1lx9ej5hmadomn1","MFX","LFKX","Meribel Airport","v6krfn3yixvjp8wausx1x4ce","Meribel","+02:00","45.40695","6.57862","0","0",,"5062"
"bgex9wxjhz3zyam6qhro6o3b","HLW","FAHL","Hluhluwe Airport","q3c05isi094ni0hfniaagq92","Hluhluwe","+02:00","-28.02","32.25","0","0",,"3177"
"bgfapzji45e25jqq20yia204","KTF","NZTK","Takaka Airport","p6kdraaswuc2nk0qcf9d7f34","Takaka","+12:00","-40.81333","172.77499","0","0",,"7836"
"bgfxnh93ucepm5rypj6ldz99","SHS","ZHSS","Shashi Airport","yry92y6t69920aouhqbpyzsv","Jingzhou","+08:00","30.32223","112.2795","0","1",,"7322"
"bgfy8bmbxs4vw7j92ezmxehz","BWK","LDSB","Brač Airport","yrbvwfs2cp8oi71h4rdd5ig9","Brac","+02:00","43.28584","16.67973","0","1",,"1066"
"bghsyc1a9onx8ywezymdq4xn","IVI","ceuy","Viveros Island Airport","kmkypy1qdicx07ewc950dfn0","Viveros Island","-05:00","8.47167","-79.00055","0","1",,"8529"
"bgib09sd4xs94yleoagt18c5","VTL","LFSZ","Vittel Champ De Course Airport","xpcl9w5s7boma2rub58y6g57","Vittel","+02:00","48.2","5.95","0","0",,"8528"
"bglmal2m3y8g41shjp8l8eig","UIP","LFRQ","Quimper–Bretagne Airport","nzj6k773dydlf0tayrknyxgm","Quimper","+02:00","47.975","-4.16777","0","0",,"6592"
"bgmfkzkzwcw3vw7ik3bqpqv1","DBA","OPDB","Dalbandin Airport","h0xzpe3pdpy2htz3hbi1by2g","Dalbandin","+05:00","28.87834","64.39973","0","1",,"1859"
"bgzu9bppddo7r0ct86h4lcwb","AXJ","RJDA","Amakusa Airport","iimrspxvfl3r438le7svw3q7","Amakusa","+09:00","32.48223","130.15891","0","1",,"240"
"bh0z3hb5yn1bvu2ll6vmv44r","SLP","MMSP","San Luis Potosí International Airport","dwn9ldq1iqe42xyn8kvenl0q","San Luis Potosí","-06:00","22.25417","-100.9308","1","1",,"7067"
"bh1k71z1qidsfa39sq76kbyi","TOX","USTO","Tobolsk Airport","gst62kr8xzqv4kukg6aiez1p","Tobolsk","+05:00","58.13","68.23","0","1",,"8115"
"bh2re2mgdy4tmyfsbs2jmu37","KMZ","FLKO","Kaoma Airport","wrzo5nwu2igkcv2qjihu3u2a","Kaoma","+02:00","-14.8","24.78","0","0",,"3741"
"bh7c9y56pn5x9otltgfs5ec1","BHH","OEBH","Bisha Domestic Airport","fkp9rd08mbkj12uruhj5hj0c","Bisha","+03:00","19.98445","42.62084","1","1",,"931"
"bh7tzk2a26hs5up5w0p0vozu","ZGM","FLNA","Ngoma Airport","r0mks5q46gmsl2y8re5gliu5","Ngoma","+02:00","-15.97","25.95","0","0",,"5651"
"bhc8chn19yfpj0bvzbiqh95v","BKC","PABL","Buckland Airport","ozc767t6xpfm84xuptf5bvky","Buckland","-08:00","65.98","-161.13921","1","1",,"1141"
"bhdgb70937cpmsxnjrecw6if","DIB","VEMN","Dibrugarh Airport","yphv4jsu5k4j9v7eq3l63r7i","Dibrugarh","+05:30","27.48334","95.01667","0","1",,"2010"
"bhdxjob8xbtkvvb6rwbggfqj","DUG","KDUG","Bisbee-Douglas International Airport","zaxa7znx4721suxkxyzdmy0g","Bisbee/Douglas","-07:00","31.47","-109.6","0","1",,"929"
"bhfw16udgqnxeidsnzbk9luq","WUX","ZSWX","Sunan Shuofang International Airport","x23lq8uoszkraspws88f6ml6","Wuxi","+08:00","31.49445","120.4289","3","1",,"7750"
"bhlrjj5xkef3jnnyvc1kskej","SZM","vdv3","Sesriem Airport","fc0kq7prrploqcq65owba8ts","Sesriem","+02:00","-24.58","15.83","0","0",,"7279"
"bhnjr4wralx5q4tpq8n4pfop","ORM","EGBK","Sywell Aerodrome","wassi0rfo5e0231fj44xoe7v","Northampton","+01:00","52.30528","-0.79305","0","1",,"7790"
"bhnue7zu7ekq46mlblgvuz1r","MYJ","RJOM","Matsuyama Airport","lod29rhpkul66zs4ipfrfj0i","Matsuyama","+09:00","33.82723","132.69971","2","1",,"4957"
"bhomm5e3rxy6hcy8zr3g7285","POP","MDPP","Gregorio Luperon International Airport","ncu3mortzjzxihxfa37rus2p","Puerto Plata","-04:00","19.75778","-70.57","1","1",,"2913"
"bhqtlnxl3x2y45bl4koqvmxu","CWL","EGFF","Cardiff Airport","hn00iy9fcj7g89mfjub57chc","Cardiff","+01:00","51.39667","-3.34333","2","1",,"1333"
"bhqw7yse5wo5t9i25puayojg","APT","KAPT","Marion County Airport","zotjb58drzkb3g5bbcy1jva4","Jasper","-05:00","35.05973","-85.58472","0","1",,"4880"
"bhrsgw2b54cdc7cxnhhx1suv","USA","KJQF","Concord Regional Airport","ik8wlegam4wtseluxnzbr0wl","Concord","-04:00","35.38556","-80.71083","0","1",,"1712"
"bhtsbxrfhezm8pg9by3271yu","TFL","SNTO","Juscelino Kubitscheck Airport","ypg99xfrg2zfnvyd6nnjccf6","Teófilo Otoni","-03:00","-17.85","-41.5","0","1",,"3631"
"bhy94nutssu4a3snhb8p9bik","VER","MMVR","Veracruz International Airport","z8nll6ou9xdipzjdp3m97ixz","Veracruz","-06:00","19.14584","-96.18722","1","1",,"8462"
"bi1timegqn5hmdp7pm5dhip1","UVF","TLPL","Hewanorra International Airport","molt9hapzpzjhygbhxukafs5","St Lucia","-04:00","13.73306","-60.9525","1","1",,"3153"
"bi3gaud69wuw0rfyiiah4g6e","AFY","LTAH","Afyon Airport","f4dg1i9go1bysjy143h072h3","Afyon","+03:00","38.72639","30.60112","0","1",,"63"
"bi52kya6uijzzctr0w2760yb","KBF","WABK","Karubaga Airport","qb6tclas8ra40t6yuacaij5f","Karubaga","+09:00","-3.75","138.3","0","0",,"3773"
"bi9ts492dw5x6nz8ftleeksy","WSY","YSHR","Whitsunday Airport","qmrursuzb1v4emn7qwqyvsz8","Shute Hbr/Airlie Beach","+10:00","-20.27694","148.7556","0","0",,"8724"
"biaps9azsykv4jvlqm55kx31","SFK","SNSW","Soure Airport","qserjkjwk9qn65d81k0nozlk","Soure","-03:00","-0.6975","-48.51944","0","0",,"7545"
"biar8pjlfc55c68bha8x71fn","RFR","MRRF","Rio Frio / Progreso Airport","k66863p9baz4yfzbstz65kf2","Rio Frio/Progreso","-06:00","10.33","-83.88","0","0",,"6754"
"bibaf5p02myeulo99rxpirys","GPN","YGPT","Garden Point Airport","p7xga9m00rivz42cv63e57qo","Garden Point","+09:30","-11.40055","130.42529","0","0",,"2654"
"bibhuzkvslejxuoomqatgy1a","BIT","VNBT","Baitadi Airport","bh9mt4zz2274m13unsor7xq3","Baitadi","+05:45","29.53","80.43","0","1",,"585"
"bijf2v46v7w6xutnwxsvoich","CNJ","YCCY","Cloncurry Airport","srgcv4j5pzd8glocm152z8e6","Cloncurry","+10:00","-20.66861","140.5045","0","1",,"1628"
"biji6mgv2225lapykjp8x6zh","FNC","LPMA","Madeira Airport","gql268euklx207dxeq833zb2","Funchal","+01:00","32.69778","-16.77444","2","1",,"4679"
"bijqcshzaugo8hxrk7z2ouvp","CTO","qul1","Calverton Executive Airpark","fymk3024cau5234ylrwtb626","Calverton","-04:00","40.91945","-72.795","0","0",,"1239"
"bijvv5fur4rayfurfu9pz9ys","CMC","SNWC","Camocim Airport","ylutsa07pmtvosp1d9ybluzo","Camocim","-03:00","-2.9","-40.83","0","0",,"1252"
"bio2sox93wmuuyqfmvh5hb0l","YQM","CYQM","Greater Moncton Roméo LeBlanc International Airport","oosbb5ks81agc4cmqkwul5xv","Moncton","-03:00","46.11306","-64.68555","1","1",,"2891"
"biozh575xthx5ijg3lcymftw","PHC","DNPO","Port Harcourt International Airport","ugbl84ezzvv00kchc6lxgkry","Port Harcourt","+01:00","5.01556","6.94973","2","1",,"6391"
"biuk47jc9ld5ibv406dn77e1","BLF","KBLF","Mercer County Airport","fonwths9plc5yhkkbhf5lapi","Bluefield","-04:00","37.29556","-81.2075","0","0",,"5060"
"bj5cf5s5287ex12f117sqny2","ADP","VCCG","Ampara Airport","o5v7eeswbvbtdpsrftu3rq1o","Ampara","+05:30","7.33695","81.62584","0","1",,"273"
"bj9w87g22qmpnlvcwwc5ym78","YEK","CYEK","Arviat Airport","xgaqe45it5fa1vqz147ngbuc","Arviat","-05:00","61.09417","-94.07166","1","1",,"448"
"bjes3o0burbdpgkmetetjaj0","PQS","t8sn","Pilot Station Airport","rl7dv9g9yju9ltwhwgt0om4d","Pilot Station","-08:00","61.93","-162.89999","1","1",,"6270"
"bjgjgi13ne7e06z6yczgmijz","DNI","HSWD","Wad Medani Airport","uc1onqcx78wxfjloc3k1adxd","Wad Madani","+02:00","14.42112","33.48278","0","1",,"8561"
"bjx3bx90afq1m67phbaiwna9","HDF","EDAH","Heringsdorf Airport","hd23nbgvfxrj2255tut03oit","Heringsdorf","+02:00","53.87862","14.15223","0","1",,"3141"
"bk03mia7zdfbauqae4e0cu9z","YTY","ZSYA","Yangzhou Taizhou Airport","g6og1k1n3simoqv3ip35ffd5","Yangzhou","+08:00","32.56306","119.7189","1","1",,"8873"
"bk2t5pm29nck5du5onxroxnl","YHH","ovmk","Campbell River Harbour Airport","s2c4utrast8dqozlixl7pf6g","Campbell River","-07:00","50.04723","-125.2561","1","0",,"1257"
"bk4b0fw92l7rk09996q0efbz","FCN","ETMN","Nordholz Naval Airbase Airport","au152i7fcvphxy29zmzivq24","Cuxhaven","+02:00","53.76667","8.66667","0","0",,"5713"
"bk4us2agr2fwwrols50lu3u4","CTA","LICC","Catania-Fontanarossa Airport","kohvvrn3161l5t49j3p6xzxg","Catania","+02:00","37.46667","15.06639","5","1",,"1377"
"bk7oeds6bw3nh7qzvi6r869d","SKU","LGSY","Skyros Island National Airport","jwxubvl4hlo56zbchidp5y6h","Skyros","+03:00","38.9675","24.48723","0","1",,"7481"
"bk7v06680zqneavh4ij368is","NRY","z2l7","Newry Airport","ytvl8ki1vo2xxopydz76euvj","Newry","+09:30","-16.08","129.3","0","0",,"5636"
"bk9np5xti2ztrkup4sdoymxm","PUW","KPUW","Pullman-Moscow Regional Airport","bg030vr6o9jo8akr37tafl8p","Pullman","-07:00","46.74389","-117.1094","0","1",,"6523"
"bke5v05be8qh5zxig8hfv1tf","SIJ","BISI","Siglufjörður Airport","ourde8c5ygzxsdfz15epf3tz","Siglufjörður","+00:00","66.13334","-18.91666","0","1",,"7398"
"bkm21z4d6kep7oygnozmwvxj","AUU","YAUR","Aurukun Airport","mhl0vk1h959fuczr1uzix8iz","Aurukun","+10:00","-13.35388","141.7211","1","1",,"517"
"bkna6sr78lkr7y45ghzg4z9h","BGU","FEFG","Bangassou Airport","bbiodyliwpi466jqez26gzyq","Bangassou","+01:00","4.78612","22.78306","0","0",,"642"
"bkojtdukn86dwi4qv6s4vks0","DAH","w1cc","Dathina Airport","vyqalnurgfygzgszphuxsnq7","Dathina","+03:00","13.87001","46.13","0","1",,"1906"
"bkpb7r79tjyv280f6i70mc5v","HVD","ZMKD","Khovd Airport","r45mpmc9ke63ohh8ltlgvz58","Khovd","+08:00","47.96167","91.6225","1","1",,"3916"
"bkwc9r3o66rdq5z419f1j08g","APA","KAPA","Centennial Airport","qjfaazkteisum8d8w0cvdq3s","Denver","-06:00","39.57","-104.8","0","1",,"1401"
"bl0ymq79nc7gagoqpsggwhcw","PKD","KPKD","Park Rapids Municipal Konshok Field Airport","idxhcx9b0z7s7qiw5ygkhkq6","Park Rapids","-05:00","46.9","-95.07","0","0",,"6132"
"bl23kz62w2j5un8y6hafoo5j","PHU","qy76","Phuoc Vinh Airport","rukat0airwsxbrydh0b4srbx","Phuoc Vinh","+07:00","11.30028","106.7928","0","1",,"6248"
"bl5619okftfkgbryboflt849","YGN","cydr","Greenway Sound Airport","vjmng3hi6jnkwsqq9zgr2bnj","Greenway Sound","-07:00","50.84028","-126.7725","0","1",,"2910"
"bl6zjjju53ucl1bgupxgsstr","RKP","KRKP","Aransas County Airport","jzrsucchapeluazvhsvxlz4h","Rockport","-05:00","28.08","-97.03","0","0",,"385"
"bla4ykv31724089u4emz3nsx","BSO","RPUO","Basco Airport","k8ysupjy0ahj7horcipo5ol5","Basco","+08:00","20.45139","121.98","0","1",,"707"
"bleziacm7m7eqjke3rpk5r8g","KFS","LTAL","Kastamonu Airport","voux78ul1l6mwwfhrtexxdbm","Kastamonu","+03:00","41.31417","33.79584","0","1",,"3794"
"blgrc8l5j94rtkx76vy4t8ee","JOJ","dlvq","Doris Lake Airport","o833gfh99pyi8kj8jqclbu83","Hope Bay","-06:00","68.12667","-106.5911","0","1",,"2087"
"blgzp111r6n30aequ5u4b6as","NSR","vgev","SERRA DA CAPIVARA","z5nsw9bxs1cu1a83yzszi5d6","SAO RAIMUNDO NONATO","-03:00","-9.08055","-42.64305","0","1",,"9142"
"bljc9awgkgfbicih4755k7v4","TUI","OETR","Turaif Domestic Airport","k0tvbtmfcv9p6skw24tvpyk2","Turaif","+03:00","31.69195","38.73417","0","1",,"8280"
"bll86l6v7161ofy040qkz2o4","MJB","p0wq","Mejit Atoll Airport","k0bkuudu4bnebsqodfkeks27","Mejit Island","+12:00","10.28362","170.86971","0","0",,"5033"
"blyg50a5m0s9cnn1v0dd18m6","PWI","HAPW","Beles Airport","hs8kpnj6isdvhjyc2odbxcdk","Pawe","+03:00","11.33","36.42","0","0",,"786"
"bm96x1ln9r4aicn4vbh133s2","VDR","SAOD","Villa Dolores Airport","crukh107i7hrh2lzae7ch7e1","Villa Dolores","-03:00","-31.94527","-65.14638","0","0",,"8496"
"bm98dn790uvum3ddo5gqik5t","TRH","lvqd","Trona Airport","ttbp0rmzckrrfdf3tb622ygy","Trona","-07:00","35.8","-117.3","0","1",,"8219"
"bmarqdfjf3umsxnzi2979sb8","YTW","wx5z","WANFANG","pfejkiszmz8jaeuvq4i0ika4","YUTIAN","+08:00","36.80862","81.78306","0","1",,"9206"
"bmc97qci1bkux2283rfe3gtg","KRU","AYEA","Kerau Airport","mqd3jp1e9vrq4r499obu7gc0","Kerau","+10:00","-8.3","147.10001","0","1",,"3876"
"bmetes1kt5fo4ly5bufer6bv","MDD","KMDD","Midland Airpark","bf27dk8xznnqckc6qef8109w","Midland","-05:00","32.04","-102.1","0","0",,"5114"
"bmf32pd1cirpcp1rhom35yv5","HUS","PAHU","Hughes Airport","p6famafqipa7zjt6fj5u7j66","Hughes","-08:00","66.03","-154.2","1","1",,"3252"
"bmha71ox0gyht1ti2sam3pus","YCL","CYCL","Charlo Airport","ysliyp7c9tezmjntrph5urq3","Charlo","-03:00","47.99084","-66.33027","0","0",,"1452"
"bmjf3jn2x8nrmccaw1e559s2","YDW","tj5b","Obre Lake/North of Sixty Airport","ebyoure6edcqed56xl6s86lx","Obre Lake","-06:00","60.315","-103.1325","0","0",,"5832"
"bmnodiaz43i1kp6ergfoswx6","ROA","KROA","Roanoke-Blacksburg Regional Airport","ngotktsior4xmgj4gaqzz5sr","Roanoke","-04:00","37.32556","-79.97555","1","1",,"6773"
"bmseki7at3l4xexepnojfbl8","PTO","SSPB","Pato Branco Airport","vxf19sggac4yofj200nul6tp","Pato Branco","-03:00","-26.22","-52.66999","0","1",,"6154"
"bmuu13e8fvupzh76bbr0csj1","LUG","LSZA","Lugano Airport","lqvjycd09e18wyr13u07nddr","Lugano","+02:00","46.00417","8.91056","1","1",,"4613"
"bmy22hmb7zba557ksvi0d55w","NAM","WAPR","Namlea Airport","zx7idornhfi24qxjphd00z1y","Namlea","+09:00","-3.23611","127.0997","0","1",,"5495"
"bneetsdf98xxo8wub69xm1rj","JIO","jx8w","Jos Orno Imsula Airport","qrohcv44lmpt7i4y5av1hyns","Tiakur","+09:00","-8.14055","127.9072","0","0",,"3601"
"bngltpvvx53wz025jnrhrkao","YIE","ZBES","Arxan Yi'ershi Airport","bs9mayjkri74ljoz1x6i4s7l","Arxan","+08:00","47.31","119.9111","0","1",,"450"
"bni1uesz25os33ogy386k25g","XBO","DFEA","Boulsa Airport","lo44gvrbxyx8ak32z05ztv3t","Boulsa","+00:00","12.65","-0.56666","0","0",,"1044"
"bnjtk5rmm510z52kmch03bqt","SDP","PASD","Sand Point Airport","ha9dr6tgnt0w3j13luq0kzr3","Sand Point","-08:00","55.32","-160.5","1","1",,"7027"
"bnp89on3p5oicmvu97hun0y5","YMF","orz7","Montagne Harbor Airport","q2xzqglc1mkrjptk3jobzbat","Galiano Island","-07:00","48.90028","-123.4183","0","0",,"5259"
"bnpchp3yod6t6mws42958toz","DON","f5ob","Dos Lagunas Airport","fuq0db1y0d7ynvdwo041j3e6","Dos Lagunas","-06:00","17.63","-89.67","0","1",,"2092"
"bnshqb72yugolp9rxj04lyxh","HNC","KHSE","Billy Mitchell Airport","f3rgr6dkm7vazqywm4u7etgm","Hatteras","-04:00","35.22","-75.68","0","0",,"909"
"bnua54b0fhajz2zbftf66er5","ELL","FAER","Ellisras Matimba Airport","d7bv5ljylbrtz2ngk6ql1e1o","Ellisras","+02:00","-23.72638","27.68834","0","0",,"2267"
"bnvpz62z6mbupzdvzr0q6cfr","BUC","YBKT","Burketown Airport","t0876cvvwbumka27nijgiz8d","Burketown","+10:00","-17.74861","139.5345","1","1",,"1182"
"bo0ucumpmev21fww4ss20q0j","BER","nii6","Berlin Brandenburg Airport","eit8l6p59hbcr3ht17lm8vww","Berlin","+02:00","52.36223","13.50167","20","1",,"848"
"bo68ym33udeq3trhheqxews8","TAG","RPVT","Tagbilaran Airport","tivb0icjsyk40q6eep51t62n","Tagbilaran","+08:00","9.57334","123.7703","1","1",,"7817"
"bogy7wspjil6gd3jv9fdpyfa","ZAL","SCVD","Pichoy Airport","ikt2hpd8m5ex7wbmw6l79xiw","Valdivia","-04:00","-39.65","-73.08611","0","1",,"6251"
"bokg11947mqj8der2vc4vbvr","BBX","KLOM","Wings Field","sdk2wggm9u6kurzm9kx7syq9","Philadelphia","-04:00","40.13473","-75.265","0","0",,"8766"
"bokyhpy1ixw1b6hrzwp7db7k","DEM","HADD","Dembidolo Airport","zbz9gd9a2o00oxc9wit5we5y","Dembi Dolo","+03:00","8.55389","34.85806","0","0",,"1967"
"boxr3xtytca4rn3pz6ublooe","MHL","KMHL","Marshall Memorial Municipal Airport","np8we3x3hi18954wtmf6nei4","Marshall","-05:00","39.09695","-93.19861","0","1",,"4911"
"bp41j6n5jrd4fsq40hwb2mag","GTP","ubxq","Grants Pass Airport","p3z26jaw395wtk8yq4bnm706","Grants Pass","-07:00","42.50973","-123.3889","1","1",,"2879"
"bp5tjvet0nb9lvpokb3ylibk","XCN","RPVV","Coron Airport","knl67l08pw76faeeswn8b4kt","Coron","+08:00","12","120.2","0","0",,"1756"
"bpdrzkavfmpsmtb2j30qxd8p","CHR","LFLX","Châteauroux-Centre ""Marcel Dassault"" Airport","tugjxwm1229gcdmtc3jrz7d9","Chateauroux","+02:00","46.86223","1.73056","0","1",,"1460"
"bpfh48ekg8voff9kocnvcw6f","LNR","KLNR","Tri-County Regional Airport","a4d7scxarkly2phc5mxswfw0","Lone Rock","-05:00","43.18","-90.2","0","0",,"8206"
"bph4bp5dbfnt33431jdimc9q","SAL","MSLP","Monseñor Óscar Arnulfo Romero International Airport","uj780z04azcjdcibz7muu8ao","San Salvador","-06:00","13.44084","-89.05583","4","1",,"5258"
"bplyoj7zmx2xdk6kd7x9kenf","ZAG","LDZA","Zagreb Airport","inapqzmnnpiyxru7szo8c841","Zagreb","+02:00","45.74056","16.06834","2","1",,"8964"
"bpppolwkkxkqg1bpocwoflj4","GRB","KGRB","Green Bay–Austin Straubel International Airport","a1csrvcj1nh54l4gg7stffkx","Green Bay","-05:00","44.485","-88.12972","1","1",,"2898"
"bppssyaxxpd0gukk0euj9dpx","EAR","KEAR","Kearney Regional Airport","onumemf7jk19cfftvw5xf15v","Kearney","-05:00","40.73001","-99.02","0","1",,"3830"
"bpthz1m11985kkaz69tjkf7r","MLK","e0i9","Malta Airport","o6gudocsrw2zutt1uxhacy29","Malta","-06:00","48.36834","-107.9128","0","0",,"4761"
"bpvqboiryw9tr0k54dgrtsd2","FST","KFST","Fort Stockton Pecos County Airport","eje56b67cvlb6nghuq7ukkhi","Fort Stockton","-05:00","30.92","-102.9","0","0",,"2529"
"bpxokspwqwffx4xhl11pphcm","BVW","YBTV","Batavia Downs Airport","foap3mge9808ripnwqev46wd","Batavia Downs","+10:00","-12.65916","142.675","0","0",,"718"
"bpyb11s2mslbu0mxfmaf2596","AKP","PAKP","Anaktuvuk Pass Airport","cj1dkeqptye1iqec3yjaa0j7","Anaktuvuk Pass","-08:00","68.1375","-151.7394","1","1",,"281"
"bq42k0minrcbwyuca6a4e1ok","TAA","dzpd","Tarapaina Airport","xpdfmx3a2axbi9jzbln9fqx8","Tarapaina","+11:00","-9.36694","161.2","0","0",,"7915"
"bqa0efqzkzcelx78d8pxw996","IDN","igzt","Indagen Airport","qsdjdfp4iha0afit99kobba5","Indagen","+10:00","-6.03305","147","0","0",,"3355"
"bqg6dn1v4uze0wdo0f5nqujo","TKV","NTGO","Tatakoto Airport","ogx7pr8f84vyjg9u78ga3neb","Tatakoto","-10:00","-17.35527","-138.44501","1","1",,"7939"
"bqijr49qrwgr6i1r9gyxcj7h","LZH","ZGZH","Liuzhou Bailian Airport","fqi3wzf1ri469bkbbxhoicx3","Liuzhou","+08:00","24.2075","109.3911","1","1",,"4498"
"bqknjnybvwqbq6o1p0p2gewj","SBU","FASB","Springbok Airport","ijtuh64efgrvcjfu64p8wxp2","Springbok","+02:00","-29.68","17.95","0","0",,"7594"
"bqmojsou5b0xgowfr07l7dka","MLS","KMLS","Miles City Airport","otzkw0zzkufeq7f9714j0sze","Miles City","-06:00","46.43","-105.9","0","0",,"5130"
"bqnckufbpsgh3niyl7v55572","KQA","PAUT","Akutan Seaplane Base","ofatwe6o3ff9j93ap31dy0k1","Akutan","-08:00","54.13334","-165.77811","2","1",,"123"
"bqq33vjap3jqbfredus4epyu","PLI","e45u","Palm Island Airport","kcvmihckq6pr33atybcuecmm","Palm Island","-04:00","12.58612","-61.39722","0","1",,"6071"
"br0esykvp6woglxhvgjicvln","LOF","sukz","Loen Airport","uvpzjm0n9ij7ipizem5b0eje","Loen Island","+12:00","7.8","168.3","0","1",,"4518"
"br0rc16164ka7yjpdvch3mo0","SUD","KSUD","Stroud Municipal Airport","g69962ku8pm6hbj1du3wmfa7","Stroud","-05:00","35.78695","-96.65638","0","1",,"7691"
"br6en9x3cy4f8htn65xgbtrp","LMT","KLMT","Crater Lake-Klamath Regional Airport","ybrewzv9ezisephk3qgv7dp0","Klamath Falls","-07:00","42.15612","-121.7333","0","0",,"1806"
"bra5delsia6ulm4v2k894szz","LNC","n3ro","Lengbati Airport","i11rxpi3iq4m1gkiuae5x0ci","Lengbati","+10:00","-6.36694","147.39999","0","0",,"4403"
"brbxmo4y742zxdrmb6ahor4a","GSJ","MGSJ","San José Airport","gdafozr4m2gw7k6w6eizoqj1","Puerto San José","-06:00","13.93612","-90.83583","0","0",,"7052"
"bremwn3u1a6ayl0golbclk1l","YQK","CYQK","Kenora Airport","a6ugtfxfcieynkkub6ixow8o","Kenora","-05:00","49.78834","-94.36305","1","1",,"3867"
"brgs2b12fsq1qt0rh48o4wwy","TQN","OATQ","Taloqan Airport","y0wgqruuv0fd5utd7bk10jl2","Taloqan","+04:30","36.77056","69.53","0","0",,"7858"
"brp1zd1d7qa15rp9zg79w5wn","FFU","SCFT","Futaleufú Airport","xw4gkpr00hg0ozr3cx3idd7b","Futaleufu","-04:00","-43.2","-71.82","0","0",,"2599"
"brr3537vohyr7zboim8pnqrl","OGM","yjx8","Ustupo Ogobsucum Airport","dg1mgs9t8bpme8k59qh8wudh","Ustupo","-05:00","9.12723","-77.93333","0","1",,"8396"
"bryfkuiv3poi9rujcjwgcw0m","LZA","FZUG","Luiza Airport","itjxic2c5a7se6jbs2hdl7ah","Luiza","+02:00","-7.18305","22.35","0","0",,"4618"
"bs0u0rtyc48no5xq920qpaxy","CWK","xf1f","CHITRAKOOT","ww6e90iklk1dktmdgc2fozk2","CHITRAKOOT","+05:30","25.16862","80.93445","0","0",,"9167"
"bs5qlywd7cy9u3hjfu33goxr","PNC","KPNC","Ponca City Regional Airport","p0vsy4lp5zb3f3dxmmehwqwq","Ponca City","-05:00","36.73001","-97.1","0","0",,"6348"
"bsb4nbevvfh39ri2cbh36pkh","CEQ","LFMD","Cannes – Mandelieu Airport","cngqp8v985ks7hc43d9edkho","Cannes","+02:00","43.54195","6.95362","0","1",,"1283"
"bsg6wec3b4bz2z6z796tf1k2","MAE","KMAE","Madera Municipal Airport","eubngbgw4booqmvs0cdc1c8p","Madera","-07:00","36.95","-120.1","0","1",,"4680"
"bsitbzav1imt60yay2uavwi1","NOO","knpa","Naoro Airport","yccpofzkd8y2uu1kyclad9pv","Naoro","+10:00","-9.08305","147","0","1",,"5526"
"bst7u41kal6icefxhpu9b0wt","MAB","SBMA","Maraba Airport","ob78rnetm6g2ls5r0plkochj","Marabá","-03:00","-5.36861","-49.13805","1","1",,"4835"
"bsto9tz3m6hwxxcesruzxi6c","BYR","EKLS","Læsø Airport","m9r3qg974jigzxrk27ssbozz","Læsø","+02:00","57.27723","10.99973","0","1",,"4204"
"bsuvarht1emf3xkkg413514o","NSM","YNSM","Norseman Airport","g3fpr35ixrsik5fyeh8h7wog","Norseman","+08:00","-32.2","121.8","0","0",,"5723"
"bswve6vbldkpwxv25ewyaxb9","ELP","KELP","El Paso International Airport","lrpypn10c4gl771hhubqo2ci","El Paso","-06:00","31.80723","-106.3775","2","0",,"2282"
"btfpugyoq3f03b15a6m528fe","YRF","CYCA","Cartwright Airport","vxbhh9qy8uihc6amgvwiwsfw","Cartwright","-03:00","53.68445","-57.03777","1","0",,"1352"
"btmvw3o88m169oewi2t9r6cx","DAL","KDAL","Dallas Love Field","p90d4sqpt5z0ucdgxx3jh2tk","Dallas","-05:00","32.84695","-96.85194","9","1",,"1868"
"btpdn7z1f8430m2bsf4b1xrm","MSC","KFFZ","Mesa Falcon Field Airport","z6elt5pjn38184xi843rqgib","Phoenix","-07:00","33.45917","-111.7269","2","1",,"5077"
"btzqca67u8a2mrfv09kcyppe","MYC","SVBS","Mariscal Sucre Airport","h1ufygx1ac9vbyksoyce9x7k","Maracay","-04:00","10.25","-67.64944","0","1",,"4890"
"bu9il93i7wahz83kl00e5qc7","VTE","VLVT","Wattay International Airport","j8axfw0cyuotpplv958tiqpr","Vientiane","+07:00","17.98834","102.5633","3","1",,"8643"
"buaodicoxidjj8owgem18eha","LOE","VTUL","Loei Airport","delgxn7lx0807wj0596xnm0k","Loei","+07:00","17.43917","101.722","0","1",,"4517"
"burllako80tq825fej9ivhpf","NQT","EGBN","Nottingham Airport","pxllyfjhnkqsmhcwnbuht9lx","Nottingham","+01:00","52.92","-1.07916","3","0",,"5765"
"buvqbbglcob7sdnev7sxu9ts","NSL","ln04","Slayton Municipal Airport","nvnnejxbpo33ksb2ty7ixa7t","Slayton","-05:00","43.99","-95.78","0","0",,"7483"
"buwe2mi4uh5mwdfmi2uj6wpj","AKK","PAKH","Akhiok Airport","l8sos5qmn150w5lspalmtk2a","Akhiok","-08:00","56.93806","-154.185","0","1",,"106"
"bv0rzordk1p6nf5v7iwahzms","ULN","ZMUB","Chinggis Khaan International Airport","ucqwyuugwadj6yxicwwlic6n","Ulaanbaatar","+08:00","47.84306","106.7667","3","1",,"1542"
"bv7o3aqcsre0oxg8lboghfgq","MZF","usml","Wild Coast Sun Airport","s7glcrfzg4xe5ssdtmgcetpo","Mzamba","+02:00","-31.1","30.17","0","0",,"8734"
"bvcqvmegbz78fag4wsu1owld","RWN","UKLR","Rivne International Airport","pt2qswgrgx2xdfztos54o20k","Rivne","+03:00","50.60723","26.14167","0","0",,"6767"
"bvddjgebem9em7v55jgarxi7","NHV","NTMD","Nuku Hiva Airport","inkjgrz08ydddr9061e4qf6t","Nuku Hiva","-09:30","-8.79555","-140.2289","2","1",,"5787"
"bvfcvw3qhlaz8p1buwb1eigx","COL","qpub","Coll Airport","rxidwmw4rlqp9fkwxfcz8wrl","Coll Island","+01:00","56.62","-6.61694","0","1",,"1665"
"bvfxcniuy9kfncff8gli1rcj","BLI","KBLI","Bellingham International Airport","m417t3lebf7q6f7e1t0eq4bx","Bellingham","-07:00","48.79278","-122.5375","1","1",,"799"
"bvk6o9jyzud5kzosfhejlpzh","RNM","OOGB","Qarn Alam Airport","ot3bwrpo6frwtbbaj9htzrsn","Qarn Alam","+04:00","21.37473","57.05417","0","0",,"6552"
"bvngzxzhnj1srpg6t88zd6ww","TSW","xy6f","Tsewi Airport","zgzcjetyhirulib19kjypect","Tsewi","+10:00","-6.96694","146","0","1",,"8229"
"bvr4vg66yp81bb7x9suckf5u","YAE","vl6i","YARTSEVO AIRPORT","qqryumx3z9msxrz0c5gvsb56","YARTSEVO","+03:00","60.25278","90.20389","0","1",,"9097"
"bvuqb70hw9dyqy4q2jvxgo1p","TDZ","KTDZ","Toledo Executive Airport","hbws1rfgflwshvmqbi822zp7","Toledo","-04:00","41.56473","-83.47666","0","0",,"8135"
"bvx4fsh01g5o0uelvxosb8p6","ONT","KONT","Ontario International Airport","sllmtoctg4aibzbdgovl4sc7","Ontario","-07:00","34.05584","-117.6019","3","1",,"5921"
"bvytjjg4mnl80zi7anh2ypic","UKT","KUKT","Quakertown Airport","rxakwteec5ka7rzzzixvgkp0","Quakertown","-04:00","40.43","-75.33","0","1",,"6567"
